,pid,name,rent,bedroom,ft2,longitude,latitude
0,6738315713,AMENITIES! GYM AND POOL! 1 BEDROOM WITH ATTACHED GARAGE!,2282,1,950,-121.915500,37.763600
1,6741646391,"City Outside, Tranquility Inside",3463,1,650,-122.391183,37.772721
2,6735983425,"Charming, Furnished 1/2 Duplex 10-min. walk to UC Berkeley & Downtown",2400,1,540,-122.275558,37.868315
3,6736643632,"Studio in Historic Pet-Friendly Building, 424 Jones St #204",1695,,,-122.416700,37.781300
4,6741646309,"Plenty of Natural Light, Storage and Garage at Avalon Fremont!",2350,1,785,-121.972897,37.543727
5,6739067386,1 bedroom/ 1 bath Downtown Hayward,1625,1,,-122.080603,37.676174
6,6736856618,GORGEOUS EDWARDIAN TWO BEDROOM WITH PARKING,4200,2,,-122.429624,37.802477
7,6741645814,AMAZING FALL SPECIAL!! **COME AND SEE YOUR NEW HOME**,2265,2,,-122.657550,38.464237
8,6734049281,three high-speed elevators and a spectacular,3400,1,756,-122.412568,37.777922
9,6739070471,**2 Bedroom 2 Bath- Walking distance to SJSU**,2200,2,,-121.877889,37.332631
10,6741635703,It's Nob Hill or Nothing in This 5-Start Nob Hill Apartment,4495,2,,-122.443507,37.778089
11,6729797575,3BR 2BA Healdsburg country home,3500,3,,-122.862000,38.618400
12,6741632930,This Lower Nob Hill Apartment Raises the Bar for Functionality,2695,,,-122.409694,37.790045
13,6741633946,**STATE OF THE ART FITNESS CENTER**,2650,2,1004,-121.990618,37.549976
14,6726713588,Spacious 2 Bed 1 Ba in Berkeley near BART,2400,2,800,-122.276866,37.861726
15,6741644841,Historical elegance meets contemporary studio at The Montgomery,3150,,500,-122.401043,37.787890
16,6731066971,Pet Friendly Beautiful 3+ Bed 2 Bath Bungalow in Berkeley,4750,3,1937,-122.284064,37.896474
17,6729846536,Large 2 bed 2 ba condo in Oakland/Piedmont area,2700,2,1200,-122.252237,37.819232
18,6741644582,"Stylish Features, Great School District, Laundry In Unit",2996,1,743,-122.234119,37.543012
19,6741644517,"Cupertino Schools, Close to Apple, Lab 126,  FB or Google Shuttles",3495,2,945,-122.047138,37.324617
20,6726719530,Spacious 3 Bed 1 Ba in South Berkeley,3200,3,900,-122.279294,37.847961
21,6741644349,"***A PLACE YOU WILL CALL HOME, AVAILABLE JAN 1, 2019***",3300,3,1469,-121.846050,37.324224
22,6741644290,"Stylish Features, Package Receiving, Pool and Spa! 1 Month Free",5750,3,1377,-122.269216,37.565529
23,6741644208,1 bedroom/ 1 bath Downtown Hayward,1625,1,,-122.080701,37.676107
24,6741643859,"Take $1500 Off December Rent, Reserve Today!",3429,2,1020,-122.276180,37.553900
25,6741643823,Ask Us About Our Move In Specials,4088,2,1213,-122.036242,37.371805
26,6741643789,Tour Today! Beautiful 1 Bedroom upgraded interior at Foster's Landing.,3022,1,745,-122.261278,37.555535
27,6741643638,2 Bed - 2 Bath - 2 Walk In Closets - Room Mate Perfect Home!!,4903,2,982,-122.403979,37.769428
28,6741643533,Coming Soon 2Bd/1ba near Oakridge,2400,2,810,-121.851182,37.250529
29,6741625090,Remodeled home Vallejo. No sec 8,2600,4,2000,-122.280400,38.158200
30,6741643241,Get it before its gone. Upstairstairs 1x1 $1799.00,1799,1,640,-122.688860,38.333584
31,6741643210,Beautiful and spacious home,2800,3,1500,-121.748576,36.921195
32,6741643086,Lease Today and Live at a Resort Style Community! Take a Tour Now!!,2387,1,650,-122.533908,38.022596
33,6741642737,"Luxury 1 Bedroom available now! Close to S.F, and Silicon Valley.",3022,1,745,-122.261278,37.555535
34,6732441345,Excellent Townhome for RENT- San Jose Downtown,3100,3,1376,-121.894844,37.357401
35,6736520121,Remodeled single family home!,2800,2,996,-121.860180,37.339370
36,6741642366,"Rain forest style shower heads, Transport network is steps away",3652,1,609,-122.417501,37.776541
37,6741642375,LIVE IN A RESORT STYLE COMMUNITY IN A PRIME SANTA CLARA LOCATION,2663,2,,-121.956425,37.355892
38,6741642330,"Large Studio coming up 12/10! AC, Heating + Washer/Dryer included!",3195,3,481,-122.397100,37.762100
39,6741642208,"Best Price in The Bay! Modern, Luxurious & Amazing Views! COME HOME!!",3042,2,1047,-121.895329,37.335920
40,6741642171,Riley Square Has Everything !!,2826,,870,-121.998170,37.359141
41,6741523736,"Oval Roman soaking tub in master bath, Electric ranges, Spa/Hot Tub",1928,1,738,-121.495500,37.656700
42,6741635842,"Walk In Closet, Now Available, Stylish Features",3435,2,1021,-122.034710,37.368048
43,6735618730,DOWNSTAIRS 1 BED 1 BATH 1 BLOCK FROM DT CAMPBELL,1995,1,600,-121.950302,37.284997
44,6741641225,Roommate Style 2 Bed 1 Bath In The Heart Of The Peninsula,3410,2,775,-122.243513,37.537302
45,6741641109,Heavenly Amenities on Cathedral Hill - $95 Move-In Special,4095,2,,-122.422562,37.783170
46,6741640933,Gorgeous panoramic views in SF's stylish enclave of Mission Bay!,4387,1,697,-122.393030,37.772564
47,6741640911,Spacious Top Floor 2 Bedroom Available Today - with private patio.,3452,2,1100,-122.263455,37.555635
48,6741640884,One-Bed/ One-Bath with Awesome Views! JUST REDUCED!!,3500,1,746,-122.399457,37.780917
49,6741640329,Huge Studio/Downtown/320 Turk&Leavenworth/Remodeled/Available Now!!,1995,,,-122.414389,37.782751
50,6741640262,EXCLUSIVE FOUNTAINGROVE LOCATION!,2589,2,,-122.721062,38.479615
51,6716913380,Must See! New Modern Apartments! Two Months FREE Rent!,4012,2,941,-122.253370,37.834005
52,6741640186,Spacious And Bright Studio!!!,1699,,,-121.952795,37.298742
53,6741627872,2 Bed/2 Bath Above Whole Foods! JUST REDUCED!!,4600,2,884,-122.399457,37.780917
54,6734812350,Great unit ready to move in!,2795,2,1056,-121.984400,37.348300
55,6741639884,Open Tues 7-7:30p HUGE Top Floor Flat - Valencia Corridor 4+Bdrm,7250,5,,-122.417659,37.755502
56,6729092375,Great 2 bedroom 2 bathroom now ready!,2795,2,1056,-121.984400,37.348300
57,6741639576,Large One Bed/One Bath in SOMA! JUST REDUCED!!,3515,1,803,-122.399457,37.780917
58,6728912576,Large 2 bedroom 2 bathroom avaiable,2795,2,1056,-121.984400,37.348300
59,6741639377,"Great Lighting, Amazing Space, Brand New Apartment Home",3985,2,1108,-121.973047,37.381160
60,6729095559,On special 1x1 unit come by check it out.,2195,1,720,-121.984400,37.348300
61,6741639172,Nob Hill/825 Pine&Powell/Remodeled/Available Now!!,3795,1,,-122.409379,37.791038
62,6729993939,Completely Remodeled,5100,3,1150,-122.417768,37.755974
63,6741638933,$300 Off For Immediate Move -In Give Us a Call!,1850,1,,-121.952795,37.298742
64,6738296885,EXPERIENCE THE SOLACE DIFFERENCE-Just N. Of Emeryville,2500,2,,-122.319132,37.965743
65,6740092466,"One Bedroom, One Bath",2195,1,720,-121.970402,37.324897
66,6741638369,2500 Van Ness #11 - $95 Move-In Special - Available Now!,3195,1,,-122.423641,37.798747
67,6741638236,1 Bedroom Steps From Fillmore Street,2395,1,450,-122.433956,37.792548
68,6741638054,Gorgeous Apartment Home! Walk to Downtown Danville! Coming soon.,3095,2,875,-121.991473,37.811287
69,6732534072,"Nr SJCC, dnst, 6plx, avail. 12/1",1650,1,650,-121.916938,37.312287
70,6738209666,"Downstairs, patio, 8plx, W/D h-ups, garage, pet OK",2150,2,800,-121.960170,37.535122
71,6736476020,BE IN YOUR UPCALE RINCON VALLEY HOME BEFORE THE HOLIDAYS,1939,1,,-122.657550,38.464237
72,6739289725,Gorgeous Waterfront Townhouse 4b/2.5b In Nice Neighborhood,5000,4,1880,-122.263278,37.544435
73,6741637305,Large 1 B/room 1 Bath,1995,1,768,-121.990326,37.546255
74,6719204577,Fantastic In-Law Space with Deck on the Water,2500,1,400,-122.287592,37.568692
75,6741636962,Pinch-Me Location Next to the Financial District and Union Square,3595,1,,-122.409379,37.791038
76,6741636780,"Sunny, spacious 3 bed/bath townhome",4000,3,1300,-122.027378,37.377115
77,6739327363,2 BEDROOM ST. HELENA APARTMENT,1850,2,,-122.466123,38.509161
78,6741636583,Studio/Downtown/449 O'farrell&Taylor/Central location/Available Now!!,1895,,,-122.416700,37.781300
79,6738215039,Discovery Bay large home with a dock,3870,4,3164,-121.605400,37.898900
80,6739320370,ST. HELENA 2 BEDROOM APT.,1900,2,,-122.466445,38.505225
81,6741636508,"Elmwood Newly Remodle one bedroom,Close to UC Berkeley",1900,1,,-122.255216,37.859828
82,6739309074,2 BEDROOM DUPLEX IN NAPA,1950,2,,-122.264507,38.283233
83,6741636389,$400 off For Immediate Move-in! Bright and Airy! Newly Renovated !!!,2200,2,,-121.952795,37.298742
84,6741636067,Studio/Downtown/449 O'farrell&Taylor/Central location/Available Now!!,2095,,,-122.416700,37.781300
85,6741636041,Spacious 2 Bedroom 2 Bath With Washer/Dryer! Join Our Waitlist Today!,1770,2,992,-121.973836,38.354397
86,6741635841,"Easy access to Hwys 280, 85, 237 Pool, Spa, Gym, Granite, Wood Floors",3545,2,940,-122.065023,37.372323
87,6741635843,OAKLAND ALL NEW STUDIO APT (Se Habla Espanol),1400,,,-122.223457,37.782073
88,6741635635,one bed rm. in-law  close to beach,2100,1,,-122.509565,37.747244
89,6741635344,"WAIVED APP FEES, $99 DEPOSIT, FREE AMAZON ECHO, GAS STOVE,NEST",3337,1,642,-122.084473,37.384740
90,6741635293,"Apple Shuttle, Granite Counters, Dual pane windows, Deep Closets",2545,1,765,-121.972061,37.325429
91,6741616439,"2-Bed,/2 -Bath condo for rent at Berrryessa",2950,2,1171,-121.962300,37.392400
92,6741634737,565 Sq.Ft One Bedroom with Loft Available Soon!!!,3162,1,565,-122.409709,37.780181
93,6741634495,Gorgeous 1x1 Available NOW! Renovated with washer/dryer!,1635,1,792,-121.972017,38.354256
94,6741634487,Haight Ashbury/100 Broderick&Haight/Great Views/Available Now!!,4295,1,800,-122.438709,37.771056
95,6741634212,"Granite counters,  large floorplan, fitness, walk to Google shuttle",3095,2,1060,-121.972061,37.325429
96,6741632674,Santa Clara 4 plex for rent  up stairs,1650,,,-121.984400,37.348300
97,6741633557,"Friendly On-site Management and Maintenance staff, Window Coverings",1971,1,657,-121.936169,37.702129
98,6741633556,OAKLAND ALL NEW STUDIO APT (Se Habla Espanol),1400,,,-122.223457,37.782073
99,6736062997,"$2000 Promo. Furnished house for rent. 4B 2B downtown, SJSU.",3999,4,2520,-121.867561,37.332631
100,6741633310,"Spacious Studio on 45th Ave & Vicente St - Open house on Tues, Nov. 6",1850,,450,-122.503285,37.738060
101,6741633289,2br 2ba townhome with garage in quiet Brisbane,3600,2,,-122.408735,37.693312
102,6741633172,1 Bedroom with All New Stainless Steel Appliances and New Carpet!!,2495,1,690,-122.462848,37.636965
103,6741632933,"Nest Thermostat & Keyless Entry, WiFi in All Common Areas, Gas Ranges",4168,1,1037,-122.084473,37.384740
104,6741632775,"Perfect Location In Campbell - Near Hwy 17, Downtown  Pruneyard",3045,2,1000,-121.941519,37.296060
105,6741632778,"LIMITED TIME ONLY! $2,050 0FF FREE RENT! HURRY COME AND APPLY TODAY!",2050,1,650,-122.021172,37.572235
106,6735521267,"1st MONTH FREE!! STUNNING, UPSCALE,*UNIQUE* GREAT LOCATION!!",2285,2,,-122.657550,38.464237
107,6741632454,"Beautiful SFR home in Discovery Bay, CA for Rent Soon!",2500,3,1503,-121.605400,37.898900
108,6741632159,Old world Charm,25995,3,1700,-122.067123,37.931326
109,6741631501,"WOW, THIS IS SPACIOUS !",2493,2,1073,-121.879238,37.678004
110,6741631433,1st Floor 2 Bedroom Here Now!,2561,2,906,-121.964081,37.558079
111,6741631455,38th Floor Large 1-Bedroom 14 ft Ceilings & Twin Peaks & City View,4115,,498,-122.389200,37.786400
112,6741631457,1BR/1BA Apt on the luxurious and exclusive Santana Row Available Now!,3552,1,765,-121.935600,37.316300
113,6741630954,STYLISH ONE BEDROOM APARTMENT HOME!!,2050,1,527,-121.990618,37.549976
114,6718396451,Huge 2 Bed 2 Bath in the Heart of the Marina!!!!,4200,2,,-122.436274,37.800814
115,6724323052,901 BRODERICK @ GOLDEN GATE AVE - 1 BEDROOM,2800,1,,-122.440213,37.778511
116,6741630568,"Your Sunny 1 Bed 1 Bath Home, Is Waiting For You!!",2848,1,730,-122.243513,37.537302
117,6719093033,$ 2575 / 2br - 800ft² - 2BR Large Apartment (mill valley),2575,2,800,-122.535886,37.881426
118,6741630181,23rd Floor Luxury 2-Bedroom with Bay Bridge & FiDi Views!,5784,2,1135,-122.389200,37.786400
119,6741630008,2 Bedroom Top Floor Penthouse for Lease - Call to tour our Condos!,5344,2,1772,-122.224231,37.464252
120,6741630008,2 Bedroom Top Floor Penthouse for Lease - Call to tour our Condos!,5344,2,1772,-122.224231,37.464252
121,6741630019,Studio Apartment in SOMA! JUST REDUCED!!,2899,,453,-122.399457,37.780917
122,6720117281,Lovely 3/2.5 bath in desirable shelter ridge!  2 caport + laundry room,3750,3,1356,-122.519285,37.901125
123,6741629866,155 Park Dartmouth - Completey remodeled family home in quiet culdesac,4295,5,2500,-121.830714,37.269298
124,6726179446,Chic 2/1 bath condo in desirable tibruon hills condo with bay views!,3195,2,1036,-122.495984,37.897525
125,6741629531,"Reduced Market Rent! Upgraded Finishes, Near VTA and River Oaks Park",2415,,588,-121.942298,37.401937
126,6738306776,"2/1 nicely remodeled apt with great views, decks & patio",2395,2,,-122.582490,37.986623
127,6738306532,"Cote D'azur 2/1 waterfront!   new carpet, paint and applainces!",5000,2,1041,-122.480583,37.846927
128,6741610734,COZY AND MODERN 1 BEDROOM 1 BATH AVAILABLE SOON,2265,1,790,-122.314525,38.326390
129,6741629024,Balcony / Patio | Gas Stove | Central Air Conditioning,2611,2,1035,-121.765542,37.233870
130,6741629037,Richmond district/390 29th Ave.&Geary/Remodeled/Available Now!!,3295,1,,-122.483600,37.759300
131,6741628575,Spacious Luxury Studio with Bay Bridge View!,4161,,518,-122.389200,37.786400
132,6741628040,Richmond district/390 29th Ave.&Geary/Remodeled/Available Now!!,3995,2,922,-122.483600,37.759300
133,6741611611,Open House Sat 11/10 Sun 11/11 10am-4pm,2060,,,-122.283726,37.825152
134,6741627823,Wonderful Private bed & bath,1530,1,,-122.389970,37.784947
135,6741627738,521 S. Willard Ave. Unit #6,2200,2,,-121.917126,37.319437
136,6741627694,Casa en renta en San Antonio del Mar,925,3,177,-76.912500,37.914600
137,6741627263,NICE LARGE STUDIO AT 2218 HASTE sT.,1895,,,-122.265173,37.865355
138,6741627226,Studio/Downtown/434 Leavenworth&O'farrell/Remodeled/Available Now!!,2095,,,-122.414524,37.785119
139,6740043951,Beautifully renovated  home on a desirable location,3200,,,-122.336900,37.972400
140,6738361664,"♥ Apartments in Petaluma, Basketball Court, Club House",2409,2,1028,-122.572294,38.224716
141,6741626969,1BR/1BA WITH EXTRA LARGE KITCHEN! Just Reduced!,3510,1,787,-122.399457,37.780917
142,6737545477,ðŸŒ… 1/2 Block to Beach! Pet Friendly & Renovated! $1500 Off 1st Month!,2650,1,650,-122.033763,36.952922
143,6741626820,Top Floor Inner Sunset 1 Bedroom,2495,1,850,-122.472075,37.765676
144,6725930491,Family home for kids and pets,6400,4,4000,-122.217378,37.816427
145,6741626789,NICE and LARGE REMODELED 2 BED/1BATH APARTMENT FOR RENT !!!,3295,2,,-122.268180,37.867330
146,6732701933,ðŸ‘£ Steps to the Sand! Renovated 1 Bedroom! $1500 off! Ground Floor!,2650,1,650,-122.033763,36.952922
147,6741626666,Pacific Heights One Bedroom Apartment For Rent,3600,1,1000,-122.440624,37.788995
148,6741626670,1/1 Beautiful views from your patio.Tour today at Serenity!,3295,1,708,-122.506086,37.948628
149,6741626602,"Unoccupied Now 11/3/2018, 1:30 pm - 4:30 pm$$$1500 per move in",1500,2,,-122.026300,37.950400
150,6741626511,Hidden Gem near Buena Vista Park! Furnished Only! ~ J.Wavro,4475,2,,-122.441932,37.765295
151,6737702650,Piedmont-Wonderful 4 plus bed 31/2 bath family home,6400,4,4000,-122.217378,37.816427
152,6741626458,Beautiful New 2 Bedroom 2 Bath in the Mission!,3875,2,,-122.407326,37.763427
153,6729962978,***Resort Living in Heart of San Jose on Golf Course***,3500,3,1950,-121.826168,37.388490
154,6729857961,"2BR 2BA apt, Double Master bedrooms! Generous storage, Modern kitchen",3295,2,1142,-121.888042,37.336653
155,6741626029,"Lovely 3Bd, 3Ba Newly Renovated two-story Condo in Mtn. View",4250,3,,-122.107919,37.407311
156,6741625988,"WELCOME HOME TO ROSE GARDEN! DANVILLE, IRON HORSE TRAIL.",3095,2,895,-121.991473,37.811287
157,6741626003,Three Bedroom+Two Bathroom Home Available! Get 8 Wks Free!,5350,3,1560,-122.183688,37.485174
158,6741626005,"1 Month FREE! Updated East Lake Merritt 1 Bds, private patios, Pets OK",2095,1,430,-122.251517,37.799464
159,6741625866,Downtown/610 Leavenworth&Geary/Remodeled/Available Now!!,3495,1,,-122.414826,37.786615
160,6741625799,NICE AND LARGE REMODELED 2 BED/ 1BATH AT 2032 Delaware St.,2950,2,750,-122.270898,37.874556
161,6741625556,BRAND NEW REMODEL! Spacious 2B1B Unit Apt.,2100,2,,-122.298500,37.915600
162,6741625475,PREMIUM 1X1! WITH LUSH PRIVATE PATIO,2173,1,,-121.886394,37.667984
163,6730650251,Beautiful 4 bedroom/2 bathroom house in lower Kensington hills,5300,4,1806,-122.276100,37.892700
164,6741625283,Downtown/455Hyde&O'Farrell/Newly Remodeled/Available Now!!,2795,1,,-122.416176,37.784960
165,6720319266,Large West Oakland condominium,2395,2,1288,-122.280400,37.836500
166,6741625211,"Lease Today, Seven Pools, EV Charging Stations",3165,2,1011,-121.930980,37.402790
167,6737189782,Cozy and woodsey furnished Berkeley Hills studio,1995,,665,-122.260400,37.891800
168,6738491293,Studio in North and East w/ Full Kitchen and Full Bath,1550,,500,-122.337189,37.936924
169,6739428934,Gorgeous Ranch-Style Home on Private Serene Cul-De-Sac,9500,4,2260,-122.200200,37.456300
170,6738565874,Pinole Condo for Rent,2300,2,996,-122.316649,38.002010
171,6741624823,2/2 Top floor w/ amazing views. Call in for more info and tour!,3635,2,946,-122.505814,37.947677
172,6729912245,Amazing Studio Move In Ready in Campbell,2095,,400,-121.935567,37.284942
173,6741624508,505 sq.ft Courtyard View! Junior One Bedroom Available!!!,3092,1,505,-122.409709,37.780181
174,6730805991,"Stainless Steel Appliances, Individual Climate Control, Fitness Center",3700,2,866,-122.491585,37.655134
175,6738164650,"Breakfast bars, Pre-wired for intrusion alarms (optional), Spa/Hot Tub",2040,2,1064,-121.495500,37.656700
176,6739495598,Bright & Cheery Two Bedroom Near Mills College,2300,2,700,-122.183621,37.774295
177,6741623986,Gorgeous renovation - approx 800sf apt in Cow Hollow! ~ J.Wavro,3595,1,,-122.438779,37.796670
178,6719140199,One Bedroom One Bath W/Pkg. North Waterfront Unfurnished,3000,1,,-122.405174,37.804763
179,6738583555,"$300/month price drop!! Large, updated house-like apartment!",6995,4,,-122.475346,37.783977
180,6741623930,"Visit Your New Home, New Construction, Dog Wash Stations",2781,1,757,-121.884600,37.327289
181,6741611508,Magazine-Worthy Mediterranean Home on Nob Hill,5095,2,,-122.408060,37.791205
182,6741623525,Single family house 4 bed & 3 full bath-7 miles from FaceBook HQ,3700,4,2300,-122.060577,37.535326
183,6736466629,Well located West Oakland condominium,1995,,,-122.280400,37.836500
184,6741623195,"Charming 2B1.5B Topfloor Unit in Pacifica, 2 Parking Spaces+Balconies",2800,2,,-122.479214,37.647348
185,6736462955,Large well located West Oakland condominium,2395,2,,-122.280400,37.836500
186,6733527200,Remodeled Sausalito 1 Bedroom w/Parking,2275,1,,-122.480696,37.847828
187,6725113162,Reduced Rent! WhooHoo! Beautiful 4-Bdrm 3 Bth home! Great location!,3295,4,1900,-122.747300,38.482200
188,6719019592,"South Lake Tahoe Ski Lease-  Dogs OK, Hot tub, 4 bedrooms/ 2 bath",3250,4,1550,-119.986500,38.917000
189,6741622565,Senior Building in Downtown Danville For independent living,1740,1,,-121.994260,37.819282
190,6741622503,1x1 Available Now! Brand New Building in Menlo Park! Get 8 Weeks Free!,3040,1,657,-122.183688,37.485174
191,6739356224,Remodeled Studio with Full Size Kitchen and Off-Street Parking (SJSU,1550,,,-121.874814,37.330253
192,6721126953,"REMODELED UNITS, GRANITE COUNTER TOPS!!!",1650,1,619,-121.872705,38.009304
193,6741622244,"Two Bed One Bath With Private Garage, Pool, Walking distance to Shops",1800,2,760,-122.729998,38.463511
194,6741622226,Apartment in 4-plex over looking the Los Gatos Creek Trail,1950,1,,-121.919349,37.302298
195,6741621858,1+1 GAS COOKTOP WALK TO SHOPS/PARK PETS TOO!!GAS COOKTOP,2103,1,708,-121.922600,37.716600
196,6741621660,MOVE 11/17 DEPOSIT ONLY $400 2+2 GAS COOKTOP CLOSE TO SHOPS/PARK,2885,2,1097,-121.922600,37.716600
197,6741590461,"2B/2B, Fireplaces, In El Cerrito",2545,2,910,-122.319836,37.927060
198,6737562278,Prime Location 3 bed 2 bath unit with Parking,3975,3,1787,-122.450030,37.731540
199,6741621350,"1/2 Month FREE! Sunny 2bd w/Pool! Near Lake, Great light & storage",2895,2,838,-122.249695,37.802773
200,6741621113,Tastefully Remodeled Apartment with one car garage!,3595,2,1000,-122.487859,37.778757
201,6741620959,Los Altos Cottage style home with hardwood floors,3595,2,,-122.097956,37.376240
202,6741620783,Spacious Ground Floor Studio w/ HW and Updated Kitchen! ~ J.Wavro,1750,,,-122.473133,37.752520
203,6741620631,Top Floor-Private Balcony-Pool!!Carlmont Mall-92/101/280,2850,,,-122.296265,37.510008
204,6741620601,"Modern 1BD/1BA apartment, Great location!!",2100,1,,-122.464011,37.777235
205,6741620245,"MOVE TO pittsburg, MOVE IN HOUSE:11 /03/18, SAT & 11 /04/18 SUN, 2P",1000,3,,-121.917200,38.003100
206,6739988934,$99 Deopsit 2bed/2bath home! Make It Yours!,2613,2,1175,-121.966610,37.757127
207,6741619659,Move For The Holidays! Look & Lease Special w/$750 Off 1/Bedroom,2275,1,700,-121.971200,37.530800
208,6739987158,Spacious Renovated 2bed/2bath home! Make It Yours!,2562,2,1175,-121.966546,37.757161
209,6739944223,Castro Charmer | Furnished 2 Bedroom | Patio+Yard | ReLISTO,4695,2,1200,-122.440288,37.758739
210,6739933380,Telegraph Hill | 4 BD+3.5 BA | Furnished | Roof Deck | Views | ReLISTO,13495,4,2800,-122.408146,37.803433
211,6741619174,"Incredible Amenities, Salt Water Pool, Patio or Balcony",2646,2,1052,-122.285413,38.324035
212,6739937498,Beautifully Remodeled | 2 Bedroom Flat | Open Concept | ReLISTO,5695,2,982,-122.430935,37.799579
213,6741619059,Furnished Studio/Master Bedroom+Private Kitchen Av December(North UCB),1500,1,,-122.265500,37.878400
214,6739942237,Duboce Park | 3 BD+1 BA | Furnished | Laundry | Deck+Yard | ReLISTO,6395,3,1230,-122.432299,37.767528
215,6739941659,Duboce Triangle | 3 BD+1 BA | Furnished | Laundry | Yard | ReLISTO,6395,3,1225,-122.431962,37.767356
216,6741618970,"1/2 Month FREE~ Jr. 1 Bdrm with VIEWS MacArthur BART, Pets OK",2095,1,443,-122.264980,37.822267
217,6738093427,Luxury SOMA Condo | 2 BD+2 BA | Views | Roof Deck+ Gym | Pkg | ReLISTO,4895,2,1100,-122.394218,37.786063
218,6738454996,large bright studio,2250,,,-122.430629,37.773039
219,6738098073,Hayes Valley Elegance | 2 BD+2 BA | Laundry+Pkg+Storage | ReLISTO,4995,2,1200,-122.423358,37.780026
220,6735525383,Modern Paradise | Furnished | 2 BD+2 BA | Laundry+Deck | ReLISTTO,5995,2,1450,-122.438078,37.774344
221,6739932900,Prime Time Marina | 4 BD+Den | 3 BA | Deck+Yard+Pkg | ReLISTO,12995,4,2800,-122.435545,37.805689
222,6741618437,Bay Views in Furnished large 1br/bath Condo (720 sqft) - Parking Incl,2800,1,720,-122.367806,37.727289
223,6736644302,Clean Updated 2BD/1BA Furnished 4-6 months,3900,2,1050,-122.419753,37.794354
224,6741618390,2BR/1BA Apartment in Marina,2825,2,,-122.427476,37.799162
225,6741618257,Newly refurbished apartment in San Pablo!,1500,1,,-122.336900,37.972400
226,6741618200,Amazing Views-Elegantly Decorated - Top of Nob Hill -$4800 a Month,4800,1,,-122.415057,37.793168
227,6741618110,Large 1 bedroom in trendy Cow Hollow. Approximately 800sf. ~ J.Wavro,3475,1,,-122.438779,37.796670
228,6725175802,Open Tues 6-6:30p Best Noe Vly Location - 1 Bdrm - Shared Garden,2900,1,,-122.430482,37.752326
229,6741617932,"A place you're happy to call home! 1st floor 2 Bedroom, 1 Bathroom",2866,2,925,-121.950168,37.337341
230,6741593363,HURRY IN TODAY AND GET $1500 OFF YOUR FIRST MONTH!!,2686,2,1011,-121.910468,37.710562
231,6741617418,Complete Luxury Living! Make Anton Menlo Your New Home! 8 Wks Free!,4150,2,1168,-122.183688,37.485174
232,6741617213,Furnished Studio/Master Bedroom+Private Kitchen Av in Dec (North UCB),1500,1,,-122.265500,37.878400
233,6741617173,Luxury Living in SF-Lumina Large 1bd+Den+1.5 Bth 941sf $5000,5000,1,941,-122.391944,37.789099
234,6741617019,"Simplicity Awaits! Spacious Studio with ""Eye Catching"" Move-In Special",2050,,650,-122.277269,37.494302
235,6741616974,521 S. Willard Ave. Unit #6,2200,2,,-121.917126,37.319437
236,6741616893,"2 bedroom, 2 Bath Condo in Willow Glen Close to Shopping and Highways",2850,2,,-121.925139,37.297344
237,6741616711,Spacious Cozy Studio With View In The San Carlos Hills!!!,2050,,650,-122.277269,37.494302
238,6733187894,2 Bed 1.5 Bath near the San Leandro Plaza TOUR 11/4 1pm,2000,2,,-122.154282,37.725902
239,6741616612,"4BR, 2BA Flat on 38th Ave & Geary Blvd (new laminated/carpet flooring)",4500,4,1525,-122.489200,37.778600
240,6741616612,"4BR, 2BA Flat on 38th Ave & Geary Blvd (new laminated/carpet flooring)",4500,4,1525,-122.489200,37.778600
241,6741616617,"EZ 92/101/280 Commute, For the QUALITY and VALUE MINDED * Laurelwood *",2495,1,725,-122.324646,37.534414
242,6741616588,"Newly remodeled 1Br/1Ba Near SJSU, JTown, SJ downtown",2100,1,650,-121.880703,37.345500
243,6741616359,Recently remodeled! Large 2bed/2bath apt near the Marina! ~ J.Wavro,3800,2,,-122.424538,37.801304
244,6741616288,"1BR, 1BA Unit on 9th Avenue (& Moraga) - Close to UCSF",2250,1,525,-122.465743,37.755894
245,6741615923,*Light and Bright apartment with Hardwood Floors throughout,3700,2,,-122.181165,37.456107
246,6741615694,"Wow! Upgraded kitchen! Stainless appliances, Walnut Creek 1BR 1BA apt",1925,1,660,-122.055889,37.898820
247,6741602675,"MOVE IN SPECIAL!!Save up to $1,000 off your 1st month's rent",2995,2,950,-122.094471,37.396751
248,6741615348,Beautiful 2 bedroom!! Great Deal******,1995,2,,-122.035700,38.267100
249,6741615188,Rare Alamo Executive Home,4500,3,3500,-122.004602,37.845638
250,6741615103,Furnished Single near UCB & Bart Available Spring 2019 (Bancroft 8),1900,1,,-122.269966,37.867440
251,6741615079,"MODERN, LOVELY 1 BR APARTMENT! WAITING FOR YOU TO MAKE IT YOUR HOME!",2558,1,,-122.491375,37.654379
252,6726143386,"Quiet, safe Upper Castro Valley Apt, 1Bd/1Ba - Pvt Parking included",1695,1,675,-122.068873,37.694430
253,6741614913,"Live Large and in Luxury w/ XL bedrooms, closets and living space!",5580,2,1172,-122.404452,37.772065
254,6741594214,Beautiful Artists Live/Work Lofts,1600,2,15000,-122.272880,37.814127
255,6741614408,Great location! Near shopping centers & Bart,1928,,565,-121.978224,37.545198
256,6741614258,Beautiful Family House in Vallejo,2500,3,,-122.247400,38.105300
257,6741614241,One Month Free! Top Chef was filmed here! Approx. 4680sf!  ~ J.Wavro,15000,6,,-122.445974,37.798626
258,6741614197,*WaterFront* Brand new Fully Furnished Jr 1B/1B opp Caltrain Incl Util,3595,1,550,-122.392799,37.775241
259,6739014162,"2bd+2bth. Nicely Remodeled, Great Location, Available for Move-In",2650,2,980,-121.998322,37.355774
260,6741611503,Poets Corner Apartment - 2/1 - Great Location!,2475,2,865,-122.070605,37.935358
261,6741607163,Stunning Furnished condo with Amazing Views! ~ J.Wavro,9950,3,,-122.417799,37.801267
262,6741612999,1B/1B available in bright large 3B/3B near Great Mall Milpitas Cisco,1595,1,1500,-121.902627,37.405211
263,6741612977,SUNNYVALE'S BEST-AWARD-WINNING CUPERTINO SCHOOLS,2498,1,,-122.031478,37.358888
264,6735179402,Sunny FURN Noe 3 BR....*Short-Term* Avail January....,4295,,,-122.425303,37.753432
265,6729422520,San Ramon--Mosaic at Gale Ranch--Never Been Rented!,3575,4,2231,-121.915240,37.760401
266,6729422601,Del Prado Beauty in the Heart of Pleasanton Avail Nov. 1st!,3895,4,2339,-121.905692,37.665733
267,6741612192,**Relax and Enjoy the View! Stunning 2 BR in Tiburon Hills!**,3918,2,1200,-122.461188,37.880883
268,6741612127,"Beautiful 4 Bed, 2.5 Bath, 1,620 sq. ft. Townhome",3395,4,1620,-122.093564,37.971271
269,6741611999,Make your home here with us at The Artisan in Petaluma!,3263,3,1350,-122.620896,38.250090
270,6741605988,"Caesarstone Countertops, Dry Cleaning Delivery System, Retail On Site",5038,,710,-122.430899,37.767978
271,6741611667,"Spacious 1 Bedroom, Large Central Courtyard with Resort Style Pool!!",2959,1,750,-122.241418,37.489178
272,6741611568,Large and Sunny 3 Bedroom 2 Bath in The Mission!,4800,3,,-122.408969,37.751103
273,6741610958,2 Bed 2 Bath Ready for Move In! W/D in Unit! Private Garage w/ Storage,2726,2,958,-122.035544,37.528537
274,6741610814,Stunning 2 bedroom with yard,2195,2,850,-121.772697,37.687386
275,6741610728,505 Sq.Ft Studio w/ Loft! Vaulted Ceiling! Available Soon!!!,3134,,505,-122.409709,37.780181
276,6741610437,$1750 Studio For Rent at 6433 Telegraph Avenue,1750,,400,-122.267880,37.818327
277,6741610365,2BR/1BA Apartment with Wall-to-Wall Closet!,2488,2,880,-121.816878,37.254243
278,6741610219,"Be The Best, Live at the Best! Move In Now To Avail the Special!",2859,1,758,-121.972489,37.352041
279,6741610206,Leaves Aren't The Only Thing Falling. Get 1 Month FREE Rent!!!,1850,1,600,-122.039484,37.968914
280,6741610132,Falling Leaves ... Falling Prices! 1 Month FREE At Move In!!!,1850,1,600,-122.039484,37.968914
281,6741610104,Warm Up With Our Hot Specials With One Month FREE Rent!!!!,1850,1,600,-122.039484,37.968914
282,6741552771,Large One Bedroom inner sunset,780,,,-122.483600,37.759300
283,6741610067,Everything You Need! All Right Here!! With 1 Month FREE Rent!!!,1850,1,600,-122.039484,37.968914
284,6737583520,Beautifully Updated 2/1 close to the BART!,2475,2,865,-122.070808,37.935364
285,6741609998,Cut Down on Those Move-In Costs with 1 Month FREE Rent!!!,1850,1,600,-122.039484,37.968914
286,6741609842,Why Go Bar Hopping When You Have This Rooftop Sundeck?,3695,1,,-122.408925,37.790836
287,6741609792,Luxury Living in SF-Lumina Large 1bd+Den+1.5 Bth 941sf $5000,5000,1,996,-122.391944,37.789099
288,6741609698,Brand New Carpet and Vinyl In This Two Bedroom Apartment!,2025,2,778,-121.994772,37.965322
289,6730903759,"MANY RENTERS CAN AFFORD TO BUY A HOME, BUT DON'T REALIZE IT!",,,,,
290,6730904476,"MANY RENTERS CAN AFFORD TO BUY A HOME, BUT DON'T REALIZE IT!",,,,,
291,6730904683,"MANY RENTERS CAN AFFORD TO BUY A HOME, BUT DON'T REALIZE IT!",,,,,
292,6730903576,"MANY RENTERS CAN AFFORD TO BUY A HOME, BUT DON'T REALIZE IT!",,,,-122.754700,38.443200
293,6741609324,Lake Merritt Well Rurnised Studio (oakland downtown),2000,,641,-122.261780,37.804227
294,6726964009,"❄ Spacious apartments in Pittsburg, Swimming Pool, Gated Community",1660,1,708,-121.864673,38.008321
295,6730894848,"MANY RENTERS CAN AFFORD TO BUY A HOME, BUT DON'T REALIZE IT!",,,,,
296,6730895445,"MANY RENTERS CAN AFFORD TO BUY A HOME, BUT DON'T REALIZE IT!",,,,,
297,6730894411,"MANY RENTERS CAN AFFORD TO BUY A HOME, BUT DON'T REALIZE IT!",,,,-122.540700,38.803600
298,6741603851,"Fitness Center, Open layout, Controlled Access, Custom cabinetry",2349,1,616,-121.869370,37.366583
299,6741608894,Serene Cozy 2bedroom/2bath w/Washer/Dryer Inside! Pool/Spa/Fitness!,2511,2,901,-121.652240,37.123767
300,6741608859,You'll fall in LOVE with the VIEW! Rent Today! Convenient Location!,2440,2,1019,-122.055385,37.957477
301,6730896129,"MANY RENTERS CAN AFFORD TO BUY A HOME, BUT DON'T REALIZE IT!",,,,,
302,6739033742,Amazing Views-Elegantly Decorated - Top of Nob Hill -$4800 a Month,4800,1,,-122.415119,37.793502
303,6741608675,Castro Valley Townhouse 2BR/2.5 BA Washer/Dryer in Unit,2350,2,,-122.069285,37.695944
304,6740023576,MOVE IN SPECIAL** Lease our 1bedroom home and receive $1000off **,1895,1,560,-121.865793,37.663004
305,6739453107,Freshly painted very bright 4 bedroom corner town house for rent,3895,4,1954,-121.867479,37.356762
306,6739906419,*** 5 bed single house in Discovery bay,2999,5,3333,-121.616893,37.920469
307,6731907554,Cactus Garden 1-6months short term  apartment Furnished (3-6months),2400,,,-122.423688,37.766440
308,6741608344,Renovated with Gas Stove and a Lovely Pool View!  $99.00 Deposit!,3472,3,1305,-121.887580,37.707435
309,6741594939,"The Beacon - Mission Bay - Water/City Views - Balcony,Corner, Parking",5595,2,1099,-122.393639,37.777669
310,6741608294,"Large Sunny 1/1, Complete Remodel, Granite Counters, Hardwood Flrs",1675,1,,-122.330790,37.947988
311,6733644877,120 Oak Street Petaluma 2bd/1.5ba Apartment RECENTLY REMODELED,2250,,990,-122.644160,38.238655
312,6731907076,Cactus Garden  1-6 months short terms apartment Furnished (3-6months),2400,,,-122.423688,37.766440
313,6741607887,"Huge 1/1, Adam's Pt, Condo Quality, Wood Floors, Adams Pt.",2250,1,800,-122.257254,37.814395
314,6741607658,Limited Availability! One Bedroom w/ In Unit Laundry  Fireplace,2699,1,700,-121.941519,37.296060
315,6741607642,3BR/1.5BA Apartment Home near Major Highways!,2862,3,1235,-121.817071,37.254414
316,6741607608,"Media room, Tech Ready, Breakfast Islands, Garage parking",2092,1,706,-122.717698,38.445511
317,6741607561,"Huge 1/1, Granite, Wood Floors, block to Lake",2150,1,758,-122.245667,37.808784
318,6741580702,"Beautiful Apartment - In-Unit Laundry, Backyard, & Great Location",2995,1,550,-122.238345,37.487321
319,6730028893,Settle in Before the Holidays! 2BD1.5 BA with Washer Dryer READY NOW!,2888,2,848,-121.914366,37.316442
320,6741607141,Scotts Valley 3bd/2ba ~End Unit Townhome~ Available Now,3000,3,1547,-122.028561,37.039627
321,6741607010,"Amazing two bedroom ! Washer  Dryer, and Much More!",2558,2,1011,-121.915500,37.763600
322,6741606597,"Spacious, modern 1 bedroom w/ walk in style closet!",4080,1,708,-122.404452,37.772065
323,6741605871,Move in this week and enjoy a savings of $1800!!!,2583,2,925,-121.950168,37.337341
324,6741605692,"One Bedroom + Office, Hardwood Floors, Gated Parking, Near Lake",1995,1,,-122.247941,37.798391
325,6741605520,1BR Apartment- GREAT LOCATION!,1900,1,,-121.909220,37.248429
326,6730806378,Luxury 1BR/1BA in Arterra,3400,1,660,-122.395999,37.773937
327,6741605443,"Quiet, Clean and Peaceful. Very Nice REVOVATED 2 Bedroom.",3700,2,866,-122.491585,37.655134
328,6724412902,"Renovated! 2Bd Apt @ Woodcreek in Petaluma, Move-In 10/25, Unit W-6EBF",2299,2,,-122.635703,38.228135
329,6741605004,"ONE MONTH FREE, Hardwood Floors, Close to Rockridge BART",1995,1,,-122.264957,37.840885
330,6741604926,Cottage Style-1BR/1BA w/Washer/Dryer Inside! Pool/Spa/Fitness/Pets!,2226,1,701,-121.652240,37.123767
331,6726919617,"New Price - 1  Bedroom + Office  Condo for RENT, w/d & pkg",2700,1,750,-122.467518,37.710986
332,6741604616,"Two bed, two bath townhome style with asher & dryer in home",2740,2,1013,-121.881552,37.402886
333,6741604544,"ONE MONTH FREE, Wood Floors, Dishwasher , Garage Parking, Near Lake",1795,1,,-122.252409,37.798845
334,6734945694,"Full Size Washer & Dryer, Fully Equipped Fitness Center, Scenic View",2570,2,1315,-122.710344,38.410861
335,6741604413,Everything is Better in Bayview! W/D in Unit Parking is $150 Monthly,2780,1,572,-122.395463,37.724785
336,6741604028,"ONE MONTH FREE, Hardwood Floors, Dishwasher, Parking, Near Lake",1795,1,,-122.252791,37.798408
337,6741603608,"Furnished  Studio 全独近 West Portal,SFSU, downtown",1750,1,,-122.471797,37.731032
338,6741603555,"Small Studio, Near Lake Merritt",945,,,-122.250345,37.801053
339,6741603368,Studio Apartment for Rent! / 620 Jones,1900,,,-122.413235,37.787093
340,6741603327,Downtown Martinez Apartment,1550,2,,-122.134699,38.015995
341,6741603230,The Special Of The Season!  $1000 Off Select Homes!,4310,2,1400,-122.065118,37.902961
342,6741603055,Visit and tour our Large Three Bedroom with a View you will Love!,4843,3,1679,-122.402444,37.582973
343,6730942564,$3500 - Spacious 3 bed 2 bath Single Family Home in Milpitas,3500,3,1400,-121.915267,37.437243
344,6741599422,"Decorative countertops! W San Jose, Gorgeous 2BR apt, Modern finishes",2395,2,850,-121.966268,37.306185
345,6741602370,MOVING IN JANUARY? COME TOUR OUR LUXURY COMMUNITY!,2509,2,1046,-122.048973,37.915323
346,6731629348,Luxury at Every Angle! Lease Turing Today & Save 1 Month of Rent!,2891,1,759,-121.898987,37.411674
347,6741602145,One Bed One Bath Apartment Available In An Open Space Atmosphere,2564,1,700,-121.816878,37.254226
348,6741602109,Nice 1 bedroom in nice neighborhood~,1795,1,,-122.285100,37.865600
349,6741602027,Bright Remodeled Top Floor NOPA Apt w/ HW Floors! ~ J.Wavro,3295,1,,-122.438552,37.778724
350,6741601704,Looking To Move ASAP? Look No Further! 2x2 Unit In Belmont!,2948,2,900,-122.279463,37.525112
351,6741601541,Bright Fully Remodeled 1BR - Unbeatable Location - Balcony - Garage,3895,1,,-122.420953,37.796953
352,6741550508,1 Bedroom Suite Milpitas,780,,,-121.895000,37.435200
353,6741600763,COMING SOON! 2 Bedroom with Breathtaking Bay Views!,3772,2,1160,-122.461209,37.880781
354,6741600527,New Kitchen/Bath-New Floor-BART/280-City College-Street Car-280,2950,1,,-122.459212,37.724101
355,6741600429,You Are Missing Out On This Wonderful Neighborhood!,2454,1,605,-122.059412,37.915458
356,6741600145,"Move-in Ready! Pool, Gym, In-Unit W/D. Minutes to Dumbarton Bridge!",2950,3,1330,-122.031072,37.536936
357,6741600031,Be The 1st To Call This Home!! New Interior In This Spacious 2BR/2BA!,2764,2,1204,-122.095030,37.660464
358,6741599993,"Fully Equipped Fitness Center, 24 Hour Emergency Call Center, Firepit",2440,2,1210,-122.710526,38.410827
359,6741599723,Remodeled! Awesome Location! Best Place to call Home!!,2798,,,-121.953499,37.349537
360,6741605520,1BR Apartment- GREAT LOCATION!,1900,1,,-121.909220,37.248429
361,6730806378,Luxury 1BR/1BA in Arterra,3400,1,660,-122.395999,37.773937
362,6741605443,"Quiet, Clean and Peaceful. Very Nice REVOVATED 2 Bedroom.",3700,2,866,-122.491585,37.655134
363,6724412902,"Renovated! 2Bd Apt @ Woodcreek in Petaluma, Move-In 10/25, Unit W-6EBF",2299,2,,-122.635703,38.228135
364,6741605004,"ONE MONTH FREE, Hardwood Floors, Close to Rockridge BART",1995,1,,-122.264957,37.840885
365,6741604926,Cottage Style-1BR/1BA w/Washer/Dryer Inside! Pool/Spa/Fitness/Pets!,2226,1,701,-121.652240,37.123767
366,6726919617,"New Price - 1  Bedroom + Office  Condo for RENT, w/d & pkg",2700,1,750,-122.467518,37.710986
367,6741604616,"Two bed, two bath townhome style with asher & dryer in home",2740,2,1013,-121.881552,37.402886
368,6741604544,"ONE MONTH FREE, Wood Floors, Dishwasher , Garage Parking, Near Lake",1795,1,,-122.252409,37.798845
369,6734945694,"Full Size Washer & Dryer, Fully Equipped Fitness Center, Scenic View",2570,2,1315,-122.710344,38.410861
370,6741604413,Everything is Better in Bayview! W/D in Unit Parking is $150 Monthly,2780,1,572,-122.395463,37.724785
371,6741604028,"ONE MONTH FREE, Hardwood Floors, Dishwasher, Parking, Near Lake",1795,1,,-122.252791,37.798408
372,6741603608,"Furnished  Studio 全独近 West Portal,SFSU, downtown",1750,1,,-122.471797,37.731032
373,6741603555,"Small Studio, Near Lake Merritt",945,,,-122.250345,37.801053
374,6741603368,Studio Apartment for Rent! / 620 Jones,1900,,,-122.413235,37.787093
375,6741603327,Downtown Martinez Apartment,1550,2,,-122.134699,38.015995
376,6741603230,The Special Of The Season!  $1000 Off Select Homes!,4310,2,1400,-122.065118,37.902961
377,6741603055,Visit and tour our Large Three Bedroom with a View you will Love!,4843,3,1679,-122.402444,37.582973
378,6730942564,$3500 - Spacious 3 bed 2 bath Single Family Home in Milpitas,3500,3,1400,-121.915267,37.437243
379,6741599422,"Decorative countertops! W San Jose, Gorgeous 2BR apt, Modern finishes",2395,2,850,-121.966268,37.306185
380,6741602370,MOVING IN JANUARY? COME TOUR OUR LUXURY COMMUNITY!,2509,2,1046,-122.048973,37.915323
381,6731629348,Luxury at Every Angle! Lease Turing Today & Save 1 Month of Rent!,2891,1,759,-121.898987,37.411674
382,6741602145,One Bed One Bath Apartment Available In An Open Space Atmosphere,2564,1,700,-121.816878,37.254226
383,6741602109,Nice 1 bedroom in nice neighborhood~,1795,1,,-122.285100,37.865600
384,6741602027,Bright Remodeled Top Floor NOPA Apt w/ HW Floors! ~ J.Wavro,3295,1,,-122.438552,37.778724
385,6741601704,Looking To Move ASAP? Look No Further! 2x2 Unit In Belmont!,2948,2,900,-122.279463,37.525112
386,6741601541,Bright Fully Remodeled 1BR - Unbeatable Location - Balcony - Garage,3895,1,,-122.420953,37.796953
387,6741550508,1 Bedroom Suite Milpitas,780,,,-121.895000,37.435200
388,6741600763,COMING SOON! 2 Bedroom with Breathtaking Bay Views!,3772,2,1160,-122.461209,37.880781
389,6741600527,New Kitchen/Bath-New Floor-BART/280-City College-Street Car-280,2950,1,,-122.459212,37.724101
390,6741600429,You Are Missing Out On This Wonderful Neighborhood!,2454,1,605,-122.059412,37.915458
391,6741600145,"Move-in Ready! Pool, Gym, In-Unit W/D. Minutes to Dumbarton Bridge!",2950,3,1330,-122.031072,37.536936
392,6741600031,Be The 1st To Call This Home!! New Interior In This Spacious 2BR/2BA!,2764,2,1204,-122.095030,37.660464
393,6741599993,"Fully Equipped Fitness Center, 24 Hour Emergency Call Center, Firepit",2440,2,1210,-122.710526,38.410827
394,6741599723,Remodeled! Awesome Location! Best Place to call Home!!,2798,,,-121.953499,37.349537
395,6741599496,"Enjoy Garden Views! 1BR 1BA apt, Los Gatos/San Jose area, Huge closets",2550,2,798,-121.950183,37.246647
396,6741599442,1 MONTH FREE RENT! Beautiful remodel! City view! ~ J.Wavro,5450,2,,-122.416827,37.788178
397,6741599253,"Close To Major Freeways, Transportation, Parks, Hills & Shopping!",2719,,521,-122.292700,37.517400
398,6740002770,"2 Bed - 2 bath, Free Parking, Free Application",3351,2,1239,-122.275221,37.806145
399,6730730300,Large Studio in Gated Community,1895,,650,-122.054430,37.632789
400,6741595198,"4 Bed, 2.5 Bath, Top Schools, 2800 SFT",4500,4,,-122.070872,37.341141
401,6741596803,4bedrooms and 3 full bath Townhome next Coyote Creek Elementary,3500,4,1684,-121.930861,37.776013
402,6741598486,"Clubhouse, Controlled Access, Washer/Dryer",2401,,532,-121.902085,37.414722
403,6741598211,Washer and Dryer in unit in beautiful downtown Brentwood!,2240,2,845,-121.702957,37.936130
404,6721952619,Remodeled 1 bdrm in Adams Point!,2195,1,851,-122.256180,37.812927
405,6741597996,Water's Edge Has Apartments with Spacious Closets!,3443,2,1100,-122.267253,37.566685
406,6741597845,"Live in Modern Convenience Modera the Alameda! Plus, GET SIX WEEKS FREE!",2650,1,664,-121.905777,37.332000
407,6741597619,KEYLESS ENTRY & A NEST THERMOSTAT IN THIS TECH-FRIENDLY 2X2 APARTMENT,4014,2,1145,-122.026271,37.376141
408,6741597528,SPACIOUS ONE-BEDROOM HOME W/ QUARTZ COUNTERTOPS AND WOOD FLOORS,4041,1,762,-122.077911,37.396107
409,6736556634,2bd Middle Unit Flat in 3 unit Bldg. w/Panoramic Views,6500,2,1450,-122.417270,37.802270
410,6741596894,You Will Love Living Here! The Region's Best Apartment Home,2216,2,1025,-121.917200,38.003100
411,6741591832,**Charming 2BR Apartment Home Available Soon in Tiburon Hills**,3712,2,1160,-122.460740,37.881348
412,6730771798,"Open concept living + kitchen, Santa Clara 1BR apt, Central heat & A/C",2595,1,688,-121.986630,37.339879
413,6738905403,Great Location! Great Deal!,2575,2,1200,-121.910842,37.295650
414,6741585991,"Reserved Parking, Spacious floor plans, 24 Hour Emergency Maintenance",2545,2,910,-122.319836,37.927060
415,6741596080,Stunning New York Style Loft with a  Private Deck at the Theatre Lofts,6700,2,,-122.431449,37.771979
416,6739751929,Spacious Apartment! Half Off First Month's Rent!,2625,2,1200,-121.910933,37.295709
417,6739960899,Move In Ready! First Month Is Free!,2575,2,1080,-121.911454,37.296046
418,6741595669,Beautiful Two Story Home on the Eastside,4800,4,,-122.469600,38.284900
419,6738318619,"☆ Spacious apartments in Petaluma, Soccer Court, Fitness Facility",2409,2,1028,-122.572294,38.224716
420,6730672680,By Far Best Deal in Palo Alto -,2575,2,,-122.120124,37.430633
421,6741595382,VISIT US TODAY! WARM & COZY 1X1 APARTMENT AWAITS YOU!,2172,1,720,-122.279291,37.524975
422,6741587311,2/2 Rare walk-in town home to celebrate the holidays! tour now,3810,2,1096,-122.505642,37.948147
423,6741595063,"Close to Shopping, Freeways and Downtown!",2495,2,900,-122.091017,37.654874
424,6741595009,Call Today!!! This deal won't last long!,2495,2,900,-122.091017,37.654874
425,6738325750,"2 Stories Castro Valley Single Family Home, 3+ Bedrooms 2.5 baths",3150,3,1948,-122.091374,37.703130
426,6741594975,"Close to Shopping, Freeways and Downtown!",2495,2,900,-122.091017,37.654874
427,6741594977,Gaga would go GAGA over this HUGE 1 bed BMR Ready NOW!,2245,1,858,-121.894413,37.340351
428,6741594963,Temperature's are Dropping so are our Rent Prices.,2350,2,790,-122.091017,37.654874
429,6741594897,Lovely 2 Bedroom Apartment... Waiting for You to Make it Home!,2350,2,790,-122.091017,37.654874
430,6741594818,"Presidio, Golden Gate, Tree-Lined Streets, Oh My!",3595,1,,-122.466065,37.784797
431,6741594388,End/Upper Corner Unit w/Views into Lagoon,3200,2,790,-121.988100,36.972100
432,6721932695,Downtown Loft Apartment with High Ceilings,1695,1,,-122.713508,38.440625
433,6741594147,"Live at the Crossroads - FiDi, Mid-Market, Polk - It's All Here",1895,,,-122.416700,37.781300
434,6741594061,Prestigious Barron Park Bungalow 3BD 2BA + XLarge Bonus Room & Yard,5595,3,1450,-122.132874,37.414239
435,6741593999,Large Remodeled Lower Haight 2BD 2BA w/ In-Unit Laundry,4450,2,,-122.431212,37.772009
436,6721282386,Unique large 1 BR flat on hillside beneath oak trees,2150,1,750,-122.523961,37.981886
437,6721927801,Holiday Rent Special - 2bd/1.5ba Renovated Townhouse Apt,2495,2,,-122.529587,37.992722
438,6741593735,"2BR/1BA newly renovated duplex, most util. included",2750,2,,-122.221645,37.809822
439,6741593643,"1st Floor Charmer, Next to Parking and Laundry",1650,2,890,-122.206657,38.107902
440,6739165773,"Vaulted Ceiling, Hardwood Floors, Classic Charm",1795,,,-122.238869,37.803179
441,6741593503,Mission Bay - Arden - LuxPenthouse - 360Views - 2Bd2Ba + XL SkyTerrace,7995,2,1569,-122.396107,37.773021
442,6741593477,1 Bedroom Apartment Home Available in Brentwood,1975,1,740,-121.702957,37.936130
443,6736355106,Seniors 62+---Available SOON!----Beautiful Apartment Community,1477,1,,-121.601515,37.009498
444,6736607985,"Sunny Potrero Hills, charming/elegant Iconic SF style home with views!",4600,2,1200,-122.397835,37.755950
445,6736358023,STUDIO Apartment Available-SOON!,1394,,,-121.832263,37.280109
446,6741593093,GREAT ONE BEDROOM IN SANTA CLARA! READY FOR ASAP MOVE IN! PARKING SPOT,2050,1,650,-121.998700,37.347831
447,6741592892,This Victorian Baby Blue Will Make You Swoon!,3195,1,,-122.429128,37.769456
448,6736354288,"$1000 OFF First Month-1 Bedroom, 1st floor apartment",2050,1,,-122.006304,37.553778
449,6741592637,X-Large Mission Dist 2bd/1ba Edwardian Style Flat w/pkg ~ J.Wavro,5200,2,,-122.422879,37.751972
450,6741591091,For Rent -  55+ACTIVE ADULT COMMUNITY*VILLAGES GOLF & COUNTRY CLUB G,3200,,,-121.760500,37.289715
451,6741592339,A Perfect Pet-Friendly Neighborhood - $95 Move-In Special,3295,1,,-122.489168,37.781977
452,6719923193,Spacious 2 Story 3 Bed 2.5 Bath  (1203 Araquipa Court),2295,3,1678,-121.988801,38.335093
453,6741567405,Private bedroom with bathroom in 2bd 2bath LUXUARY Apt,2550,2,,-122.391412,37.760299
454,6741591963,"Walking Distance to Shops, One Bedroom + Luxurious living , BBQ grills",3897,1,1024,-122.429000,37.624700
455,6741571406,3 bedroom 1.5 bath Newly renovated,1265,5,1295,-122.531100,37.973500
456,6737799144,"4 bedroom, 2 bath home in Almaden",4395,4,,-121.864995,37.215074
457,6741591754,Pet-Friendly Apartments in the Castro - $95 Move-In Special,4495,2,,-122.430030,37.761188
458,6718325157,Beautiful one bedroom in great Lower Nob Hill location,2850,1,,-122.409357,37.790087
459,6735966367,"4 bed, 2 bath house in West SJ with backyard and garage (Poe Lane)",3800,4,1500,-121.969468,37.299985
460,6739932070,"Neighborhood Park and Play Area, Granite Countertops, USB Outlet ports",3639,3,1549,-121.911587,37.704357
461,6740041812,Thanksgiving Specials!!! Call Now!,4315,2,1106,-121.983918,37.229594
462,6735188416,"1-Bed Edwardian, High Ceilings, Bay Windows, First Floor, Bright",2695,1,700,-122.425237,37.788070
463,6724009392,2 Bedroom Apartment,3650,2,850,-122.449203,37.770675
464,6741590190,Great Deal Price Offer You'll Fall In Love!,2499,3,1100,-121.737678,37.681045
465,6724017185,Studio Ready to move in  #102,1995,,225,-122.416700,37.781300
466,6741589655,Stuff yourself with savings at Park Club!!,1999,2,840,-122.688860,38.333584
467,6741589492,"Felton Remodeled 2/2 Home, Detached Office & Garage, sunny lot",3200,2,1032,-122.074175,37.049448
468,6733620495,!!! UP TO $1200 MOVE-IN BONUS WEEKEND SPECIAL,2500,1,,-122.101275,37.396951
469,6741582080,2 bed 2.5 bath Ritz Carlton Residence w/ pkg ~ J.Wavro,8500,2,,-122.399149,37.791017
470,6741589286,Come on down!  Special rate of $2399 (2x1.5)!,2399,2,930,-121.900761,37.251432
471,6741584118,"Convenient in-home washer and dryer, Backyard barbecue grills, Covered parking",2360,2,940,-121.830600,37.245800
472,6741589145,Come Check Us Out This Weekend!! Call and Schedule a Tour,2201,1,650,-121.881970,37.689077
473,6741589122,180 S 15th #6 - Upstairs unit in great residential neighborhood,1925,1,,-121.874149,37.340098
474,6741581738,SPACIOUS 2BD 2BTH W/ CITY VIEW! *1MONTH FREE IF MOVED IN BY NOV. 30TH!,4325,2,977,-122.408789,37.773545
475,6741588923,Hurry in for your special deal on this large 2 bedroom home!,2675,2,1013,-121.919614,37.454774
476,6741586866,Huge Furnished Room/Suite converted of 3 Car Garage,900,,600,-121.875286,37.997651
477,6741588327,"SPACIOUS FULL FLOOR 3 BEDROOM VICTORIAN FLAT, HARDWOOD, LAUNDRY, DECK",4750,,,-122.436604,37.785896
478,6741588236,Studio apt. home now available. Minutes to/from SF. Great location!,2305,,482,-122.478687,37.664399
479,6741584015,REMODELED 1X1 APT. NEAR ANYTHING YOU WOULD NEED!,2135,,,-121.953499,37.349537
480,6739972433,4 Story Contemporary House in Bernal Heights,5800,3,,-122.418752,37.741180
481,6739378391,46 Oakwood / Open House Saturday 11/10/2018 at 10:AM to 10:30 AM,2395,1,,-122.214017,37.470328
482,6731492104,"Studio designed for comfortable, compact living!",2499,,326,-122.397100,37.762100
483,6741582333,"Rent this cozy 1 bedroom NOW for $1,697.00 per month.",1697,1,,-122.034878,37.978448
484,6736866951,Clean Unit  near MacArthur BART Station (Oakland north /),3200,3,,-122.265596,37.829494
485,6741565091,Pierce & Golden Gate/Available Now!Pets Ok!$95 Move In Special!,3395,1,,-122.435098,37.778441
486,6741556643,Dog Friendly! 2 Bed 2 Bath! Large Patio! Lots of storage! Ready Now!,2767,2,870,-122.001753,37.565910
487,6741580940,"Generous pantry with adjustable shelves, Relaxing spa and lap pool",2550,1,,-121.989069,37.318442
488,6741580738,NASA Facebook Pets Welcome! Dishwasher!  Adjacent to Lovely Park br3,2720,3,1120,-122.013295,37.387381
489,6741580582,GORGEOUSLY UPDATED 1X1 WITH DESIGNER FEATURES-$1000 OFF @ MOVE-IN,1850,,,-122.748613,38.467098
490,6731971201,1 bed 1 bath apartment for lease,2395,1,810,-122.093552,37.397717
491,6741580323,1 Bed 1 Bath in a beautiful house AVAILABLE NOW for single occupancy,1100,1,400,-121.805937,37.311384
492,6741579956,Util/some Paid Private Balcony Dogs Cats OK Beautiful Forest Pool bhs,1845,,476,-121.937268,37.336741
493,6741579741,Beautifully Landscaped 4 Bedroom Home!,3700,,2584,-121.649562,37.117305
494,6720197620,860sq ft North Beach Condo with parking,3500,1,860,-122.409100,37.800200
495,6741579115,2 bedroom/1 bath upper level apartment~Available 12/1,1675,2,,-122.694100,38.347000
496,6741565453,Lupine @ Wood/Available Now/Pets Ok/Great Location!$95 Move In Special,2495,,,-122.447927,37.783752
497,6731971099,"1 bedroom 1 bathroom - $2,395/month",2395,1,810,-122.093552,37.397717
498,6741578717,Boastful Claims Or The Real Deal? You be The Judge N. Of Oakland,2100,1,705,-122.319132,37.965743
499,6741578576,"*2x1.5 1000sqft Newly Remodeled, with spacious closets**",2625,2,1000,-121.938338,37.338732
500,6741549467,RARE JAPAN TOWN HISTORIC FLAT | READY NOV.17,2899,,921,-121.892866,37.352540
501,6735814047,Luxury Condo in the Heart of the City,4995,2,1250,-122.423272,37.781264
502,6741578172,Modern Amenities. Urban Location. Sophisticated Style.,2763,2,970,-122.336900,37.972400
503,6738112927,Santa Cruz/ Live Oak -2244 Capitola Rd. #D 3 Br unit,2400,3,,-121.979176,36.975594
504,6741578056,VERY SPACIOUS 2 BR/2 BA. CORNER UNIT! GREAT LOCATION!,3810,2,1100,-122.436173,37.653130
505,6738102609,"Santa Cruz, 2031 Encina Dr #B single level duplex",2650,2,,-121.977296,36.979295
506,6738089442,"Santa Cruz, 3320 Portola Dr. #16 Central Live Oak location",1625,1,,-121.971824,36.963386
507,6741577906,"1x1 850sq ft, spacious closets, remodeled!!",2395,1,850,-121.938338,37.338732
508,6738078992,Santa Cruz-230 Felix St. #I-Cute Studio,1750,,,-122.032406,36.967294
509,6738069628,"Capitola, 4690 Capitola Rd #7 cozy studio close to Capitola Village",1465,,,-121.958585,36.973518
510,6741577643,Hardwood Floor 3 Bed / 1 Bath Near Dolores Park ~ J.Wavro,4200,3,,-122.421578,37.761701
511,6724784823,Santa Cruz-703 Third St. #2-Great Beach Hill location,1975,1,,-122.020490,36.967381
512,6726588738,"Spacious 2x1 with A/C, W&D, Balcony, Storage & More!",2295,2,961,-122.677370,38.437896
513,6725732122,"Santa Cruz, 121 Grant Street #7 Nice story unit",2350,2,,-122.022560,36.985810
514,6731034508,Cozy Junior 1 bedroom near the Boardwalk**Open House 11/9/18**,1475,1,,-122.017744,36.966033
515,6741567754,Love ❤ Where you Live at Villa Granada ☚,3290,2,1155,-121.995096,37.349160
516,6725708344,2-1605 East Cliff Dr. #1-Cute and cozy beach bungalow,1885,1,,-121.988904,36.963095
517,6739914361,"Santa Cruz, Spacious downstairs unit in 4plex - 1805 Halterman Ave.",1675,1,,-121.978143,36.977062
518,6722011620,Aptos-Great location in quiet complex-6996 Soquel Dr. #23,2150,2,,-121.918375,36.985954
519,6725719744,Soquel-5031 Wilder Dr. #3-Newly remodeled,2250,2,,-121.952670,36.984750
520,6741576911,"1x1 850sq ft, spacious closets, remodeled, ready for move in!!",2395,1,850,-121.938338,37.338732
521,6741576884,Beautiful Garden Studio in the Heart of the Marina!,2600,,,-122.436963,37.803950
522,6735532487,157 Franklin St. #39 - Close to Downtown and UCSC,2350,2,,-122.024244,36.983450
523,6732334639,Campbell - 278 N. San Tomas Aquino Rd. #2-Great Central Campbell,2250,2,800,-121.976768,37.290053
524,6732334169,Campell-268 N. San Tomas Aquino Rd. #4 -Great Central Campbell,2250,2,,-121.976768,37.289859
525,6732333722,Campbell - 260 N. San Tomas Aquino Rd. #2-Great Central Campbell,2250,2,800,-121.976768,37.289742
526,6739914932,157 Franklin St. #39 - Close to Downtown and UCSC,2350,2,,-122.024244,36.983450
527,6741576270,Luxury Happy Valley Fully Furnished Private Estate,17400,5,4721,-122.162171,37.910508
528,6741576198,"LightRail Shuttle, Near Netflix, Dbl pane windows, gym, spa, pool,",2645,2,965,-121.959856,37.270000
529,6734029644,Specious Newly Remolded 3 Bedroom,1895,3,1200,-122.247400,38.105300
530,6739873025,"Parcel Pending Locker System, On-site Maintenance, Spa",2905,1,632,-122.491585,37.655134
531,6739754085,Large Just Remodeled 3 Bedroom 1 Bath in Vallejo downtown,1895,3,1200,-122.251655,38.100065
532,6741575371,Rates are looking good at Park Kiely & utilities are included!!**,2364,1,,-121.975669,37.320842
533,6739134765,Beautiful 2BD/1.5BA Lower Flat in the Heart of the Marina!,5400,2,1400,-122.437373,37.801048
534,6741574785,Pacific Heights Panoramic View Penthouse Condo w/ Guest Quarters!,17500,3,3490,-122.438550,37.792100
535,6741574650,"terrific SOMA JR. one bdrm, now available",2250,1,,-122.414401,37.770485
536,6741574128,BEAUTIFUL 2ND FLOOR VIEW!CHARMING & BRIGHT 2 BED 1 BATH IN SAN LEANDRO,2445,2,850,-122.149427,37.718131
537,6727614542,Luxury 2 bedroom Apartments only blocks from best surfing area in SC,3495,,,-121.978682,36.960061
538,6741556186,"Utilities Included, Pet Friendly and Rent Controlled. Live At The Grove.",2213,1,640,-121.927032,37.310642
539,6717947674,"Searidge Upstairs Apartment 2 Bedroom, 1 Bath",2450,2,,-121.890200,36.979700
540,6741573888,This Comfy 2 Bedroom is Too Hard to Pass Up! Apply Now~,2562,2,829,-121.890167,37.419639
541,6741506929,Newly Renovated Senior Apartments- Now Taking Applications!,1076,1,559,-122.684340,38.435291
542,6741573787,Lease today and receive 2 months free!,2623,1,977,-121.893900,37.296000
543,6727539173,Furnished Studio in Haight Ashbury,2900,,,-122.445307,37.769734
544,6741573318,Charming Nob Hill One Bedroom with Shared Yard ~ J.Wavro,3395,1,,-122.413011,37.794321
545,6718471065,Cozy Top Floor Studio with Hardwood Floors Located Near Downtown,1425,,,-122.062184,37.928548
546,6730093868,2b 2b apartment close to Caltrain; washer & dryer in unit,3800,2,1040,-122.286565,37.530965
547,6720245927,Spacious 2bd/1ba Now Available in Convenient Fremont Location,2200,2,,-121.923907,37.492275
548,6721115745,Newly Renovated 1bd/1ba with Luxury Finishes Near Piedmont Ave,2425,1,,-122.250307,37.831581
549,6720782809,Charming Studio Near Lake Merritt Ready for Move-in,1495,,,-122.255176,37.798470
550,6718954523,New Fully Renovated Top Floor 2 Bed; Granite Counters & Close to BART,1995,2,,-122.334647,37.929517
551,6741572441,Newly Remodeled 4BR 2BA in San Leandro Downtown,2900,4,,-122.163573,37.718388
552,6726546260,Luxury Townhouse in Saratoga Oaks Community,5250,3,2417,-122.041270,37.257543
553,6737328937,Country Living on Pleasant Valley,3750,,,-121.890200,36.979700
554,6726628707,"'TIS THE SEASON, NOVEMBER RENT FREE. 2X1 IMM. MOVE IN",2195,2,990,-122.707997,38.455611
555,6737577503,"Elegant Russian Hill Condo w/  Water, Alcatraz & GGBridge Views!",5200,2,1070,-122.419659,37.801029
556,6730009260,Executive Furnished | The Watermark | 2 BD+2 BA | Views | Pool+Gym,5895,2,1019,-122.389637,37.786224
557,6741572202,Ready for Move In!  Quiet and Convenient!,2250,1,615,-122.013597,37.358006
558,6726629539,"Two Bedroom Townhome, not far from SRJC",2280,2,990,-122.707997,38.455611
559,6741572086,Call Now About This Special Offer!,2301,1,541,-122.027944,37.358105
560,6730087087,Corona Heights Charmer | Exec Furnished | W/D+Yard+Garage | ReLISTO,4500,2,1000,-122.440168,37.762187
561,6739096217,Luxury 2 bedroom Apartments only blocks from best surfing area in SC,3295,2,850,-121.978682,36.960061
562,6724143013,"'TIS THE SEASON, NOVEMBER RENT FREE. 2X1 IMM. MOVE IN",2195,2,990,-122.707997,38.455611
563,6736763318,"Beautifully Updated Miraloma Park Home w/Spacious Dk, Yard & Pkg!",5400,3,1350,-122.446494,37.740206
564,6741571963,Look no further! Your next apartment home is HERE at Vintage!,3840,3,1422,-121.857176,37.669678
565,6720684367,"Prime Location Berkeley Blocks from BART with New Carpet, Fresh Paint,",2250,2,,-122.276247,37.855526
566,6741565225,Pre-lease pricing - Live/Work MacroUnit - Available Dec 1st,3200,2,15000,-122.266880,37.812427
567,6736675207,Beautiful Fully Remodeled 2 Bdrm / 1 Bath Triplex Unit with Parking,3275,2,800,-122.413093,37.629120
568,6741571434,Your New Home Awaits - CHA - Close to I-80 and TAFB,1795,2,810,-122.042762,38.271780
569,6738358327,Studio Available for Immediate Move-in Near Lake Merritt,1495,,,-122.254465,37.798204
570,6737581315,Bright Top Floor Live/Work Loft w/ Views & Private Patio in SOMA,4500,2,1200,-122.410267,37.776104
571,6738240898,"Quiet, No Credit Check, Perfect Location",1895,2,810,-121.781925,37.662643
572,6726561650,Newly Renovated 1bd/1ba with Luxury Finishes Near Piedmont Ave,2425,1,,-122.250307,37.831581
573,6741571278,2 Bdr  near shoping Center  Section 42 Income Restriction,1506,2,850,-122.048712,37.949514
574,6725197800,Charming Studio Near Lake Merritt Ready for Immediate Move-in,1495,,,-122.255176,37.798470
575,6718949741,New Fully Renovated Top Floor 2 Bed; Granite Counters & Close to BART,1995,2,,-122.334352,37.929525
576,6739271961,Beautiful Tri-level Loft w/2BD+Office/2BA & Prkg!,4400,2,1500,-122.404951,37.770919
577,6720232100,"Prime Location Berkeley Blocks from BART with New Carpet, Fresh Paint,",2250,2,,-122.276247,37.855526
578,6741570971,3BR and 3 1/2BA House in Saratoga Hills,9500,3,3500,-122.033337,37.256476
579,6741550148,Come See Our Tranquil & Peaceful Community. $1000 OFF MOVE IN,1965,1,765,-122.055253,37.639902
580,6741570761,Great location for this charming home,3400,2,1020,-122.260693,37.492959
581,6741570618,*GREAT LOCATION*1 Bedrooms/1 Bathroom Apartment Available !!!,2175,1,718,-121.915458,37.456235
582,6741570627,Lovely 1 bedroom...Waiting For You To Call It Home!,1615,1,629,-122.019844,38.256203
583,6741570540,"One Bed/One Bath Apt, Walk to DVC! Move in Special $500!  Now!",2034,1,772,-122.069886,37.974008
584,6720804794,Cozy Top Floor Studio with Hardwood Floors Located Near Downtown,1425,,,-122.062184,37.928548
585,6720818934,Spacious 2bd/1ba Now Available in Convenient Fremont Location,2200,2,,-121.923907,37.492275
586,6741570001,Beautifully Designed One Bedrooms Apartment - Loft Style Living,4235,1,1141,-122.023800,37.376400
587,6733533821,The Grove - 2 Bedroom unit,5000,2,1595,-122.475135,37.735850
588,6739254673,Studio Available for Immediate Move-in Near Lake Merritt,1495,,,-122.254379,37.798238
589,6741569920,Month to Month Leasing for this 1 Bedroom 1 Bath!,2380,1,740,-122.439507,37.616521
590,6741569835,Bright and Sunny One Bedroom Available Now,1875,1,700,-122.330060,37.949951
591,6732446180,The Villages Golf & Country Club - 55+ Active Adult Community - Rental,4600,2,,-121.756200,37.297400
592,6741569515,Beautiful 3/2 single family home rental !,2800,3,1106,-121.971674,37.960119
593,6723968325,"5 Bedroom, 2 Bathroom Flat on 28th Ave",5950,5,,-122.487946,37.779947
594,6741569306,Always Fresh. Forever Original!!,1925,2,1108,-122.328381,37.989822
595,6741569248,Short term rental - studio in law near SJ City College,1500,,350,-121.935600,37.316300
596,6723968967,"4 Bedroom, 2 Bathroom Flat on 28th Ave",4750,4,,-122.487946,37.779947
597,6723976230,One Room and One Bath,1295,,,-122.487946,37.779947
598,6741568862,Stunning Noe Valley Home w/Modern Upgrades & Private AuPair Quarters!,9900,5,3000,-122.433439,37.752136
599,6740015943,"1 Bed - 1 Bath, Thanksgiving move-in Special! No Deposit!",2303,1,672,-121.935116,37.285011
600,6726983764,3 Bd/1 Ba Lafayette House in Tranquil setting for Lease!,2700,3,1200,-122.107883,37.929890
601,6737414770,LARGE STUDIO - QUIET -  DOWNTOWN,1525,,470,-122.158674,37.729653
602,6732236655,4 Bd/2 Ba Single-Story Moraga House for Lease!!,4300,4,1805,-122.121626,37.864243
603,6729299319,4 Bd/2 Ba Concord House in Canterbury Village for Lease,2900,4,1216,-121.997582,37.960446
604,6741568275,Love Where You Live! Studio Apartment Available Now!,2196,,423,-122.295086,37.841061
605,6735439623,Desirable 4 Bd/2 Ba Danville House for Lease!- Vickery Properties,4500,4,2660,-121.889490,37.801878
606,6727343583,533 Seventh Street,1825,2,800,-122.634904,38.227221
607,6739225639,Pepper Road,2300,2,,-122.677700,38.240300
608,6718992843,90 Liberty School Road,2400,2,,-122.706478,38.281640
609,6741567725,Love Where You Live! TOP FLOOR Studio Apartment Available!,2339,,481,-122.295086,37.841061
610,6741564305,Gorgeous Sunsets....Lake View!,1995,4,2000,-122.566084,38.815650
611,6720190906,2331 Chileno Valley Road,2650,3,,-122.699223,38.204142
612,6726044267,7 La Cresta Drive,2900,4,1600,-122.651061,38.225690
613,6739132700,125 Upham Street,3300,3,2300,-122.643186,38.230062
614,6741567251,710 English Street,1375,1,364,-122.650883,38.227174
615,6739275222,Lakeville Highway,2000,2,,-122.615500,38.250700
616,6726619749,500 Eastwood Drive,2650,3,1296,-122.613596,38.254316
617,6741566912,"Spacious Modern 3x2 With Patio, Available NOW! With A Special!",4344,3,1195,-122.295086,37.841061
618,6729736608,1753 Northstar Drive,2800,3,1376,-122.639178,38.263396
619,6741566697,"Great location, townhome in the heart of the Bay Area.",2950,3,1356,-122.089400,37.674000
620,6720189164,3 Raffles Court,3200,3,1938,-122.592064,38.244659
621,6741566652,Spacious & Beautifully Updated Bayview Home,4800,3,1604,-122.387680,37.730259
622,6730869827,Great Location!! Studio Apt - Single Story Community,1995,,330,-122.088755,37.404567
623,6718937741,8792 Petaluma Hill Road,1850,2,800,-122.648300,38.315300
624,6730867595,Single Story - Excellent Location - 1 BR - $300 Savings first month,2175,1,,-122.088755,37.404567
625,6741566341,"Only $2,000 a Month for this Junior 1 Bedroom!",2000,,480,-122.303020,37.551637
626,6730640751,1364 Magnolia Avenue,2300,3,1584,-122.683626,38.329655
627,6726938285,Single Story - Excellent Location - Upgraded 1 BR Apartment,2325,1,,-122.088755,37.404567
628,6741566266,"Proper Design, Smartly Priced, Ready for Move In",6697,2,980,-122.391949,37.787213
629,6729735528,8481 Liman Way,2300,3,1120,-122.691565,38.326424
630,6741566122,"Big Savings! $1,601 Off On Our Spacious 3 Bedroom Apartment!",3958,3,1303,-121.880000,37.386400
631,6726675570,17 Castle Court,2200,2,1120,-122.753132,38.433168
632,6741527627,"""FULLY REMODELED"" 2Bdrm, 1Bath + Garage, SFR in E. Oakland",2795,2,,-122.216600,37.780600
633,6741565942,Spacious Two Bedroom w/ Beautiful Courtyard Setting,2899,2,1000,-121.941519,37.296060
634,6725163982,1022 Ruth Place,2200,3,134,-122.740960,38.441125
635,6741565833,Ingleside Home for Lease,6500,4,3029,-122.470393,37.727963
636,6741565825,Bush & Jones/Available Now/Pets Ok!Top FL! $95 Move In Special,2895,,,-122.413222,37.789594
637,6736671274,"Very Spacious 2BR apt! downtown San Jose, Modern kitchen, Great layout",3295,2,1142,-121.888042,37.336653
638,6736021402,2057 Red Oak Circle,3200,4,1870,-122.747300,38.482200
639,6741563128,Move in Special - The Meadows at Fountaingrove - 2 Bedroom,2300,2,1138,-122.725574,38.478259
640,6733633996,643 University Street,2150,2,1000,-122.863213,38.616771
641,6737546921,645 University Street,2850,3,,-122.863213,38.616800
642,6720181982,1253 Royal Oak Terrace Unit A,3000,3,,-122.555728,38.087429
643,6741559211,Extra Window in this 1 Bed 1 Bath! Great Natural Light! Avail 11/17!,2599,1,763,-121.830600,37.245800
644,6739431341,"Professional onsite management, Park Like Setting, Storage",2618,2,930,-122.288860,38.324524
645,6741564944,Very spacious 2 beds and 2 baths and 2 parking spaces,3000,2,,-122.319761,37.553553
646,6741564942,"Spacious, Unique, & Stunning Townhouse Including Rental Promotion",3500,3,1722,-121.887000,37.347600
647,6741564856,MOVE IN SPECIAL!!! (3) Bedroom,2850,3,,-122.065872,37.677840
648,6741462123,Custom window and shower treatments with stainless steel hardware,3484,1,,-122.392816,37.779761
649,6741564752,Cozy 1 Bed 1 Bath W/ Vaulted Ceilings & Breakfast Bar!,3204,1,712,-122.263157,37.535342
650,6741564586,Large & Upscale 1BD/1BA W/ Parking Available.,3495,1,,-122.431311,37.801445
651,6741564340,"1Bath sunny, remodeled apartment (Castro @ Jersey)",3200,1,,-122.434216,37.750290
652,6741554515,Visit us here at the Esplanade! You won't regret it ❀,2449,1,737,-121.891894,37.351345
653,6741563813,"Stylish Loft with 2 Enclosed BD's, Loft Office & 2-Car Parking!",5500,2,1500,-122.421343,37.763323
654,6738293442,1BR apt | Available DECEMBER | Eat-in kitchen | Great value + location,1675,1,650,-122.330973,37.951929
655,6738428657,Sunday Showing 2BR/3BR Mission/Octavia flat,4600,2,1200,-122.423401,37.769629
656,6729919139,Studio,1295,,333,-121.877867,36.961851
657,6741563448,$99 Deposit for 1st Floor 1Bed/1Bath Available Now #1610,2158,1,575,-121.985851,37.776910
658,6735873639,Top Floor Remodeled 1x1 Available November 9th!,2450,1,740,-122.429000,37.624700
659,6725569474,Open house: Converted 3BR in northern Mission 1/2 block to Valencia,4900,3,1300,-122.424259,37.770308
660,6741537767,Pierce & McAllister/Available Now!Pets Ok!$95 Move In Special!,4595,2,,-122.435079,37.778346
661,6738501666,GRAB THIS SPACIOUS DOWNSTAIRS 2 BEDROOM AT PARKSIDE!!!,1875,2,770,-121.694538,37.941823
662,6741562903,Spacious 1x1 w/ Upgraded Floors! Tons of Storage! EZ Freeway access!,2495,1,823,-122.033606,37.305968
663,6735874377,GREAT Price on this 3 Bedroom 2 Bath Available Nov. 16th!,3300,3,1140,-122.305750,37.550491
664,6741521808,"Hardwood Style Flooring, Carrara-Style Quartz Countertops, Gas Ranges",4750,1,1069,-122.084473,37.384740
665,6741562698,FURNISHED 1BD Loft w/ Private Patio & Prkg at One South Park!,4400,1,900,-122.397480,37.776536
666,6731171497,De Sabla Apartments Studio and one-bedrooms,2080,,,-122.327600,37.550700
667,6739887781,"Guest Parking Available, Public Parks Nearby, Full-Size Washer & Dryer",1905,1,716,-122.698497,38.416412
668,6741559163,(3) Bedroom Open floor plan MOVE IN SPECIAL!!,2850,3,,-122.065872,37.677840
669,6741562402,"Water Views, Sunny, and Close to Shops!",2340,1,750,-121.994606,37.345779
670,6741562197,"MOUNTAIN VIEW - #16 - STUDIO - with nice updates, great location.",1850,,,-122.078300,37.389300
671,6735733025,De Sabla Apartments AVAILABLE NOW,2080,1,,-122.330041,37.565780
672,6741561991,"Leasing Now, Quartz Countertops, Private Garages",3740,1,778,-122.003673,37.384883
673,6741561931,INFINITY | 2BD/2BA + DEN | INCLUDES PARKING | Rob Orlando SFRES,4795,2,,-122.390971,37.790070
674,6741558854,MOVE IN SPECIAL!!! 1400 Sq ft (3) Bedroom,2850,3,1400,-122.065872,37.677840
675,6741561795,You'll love it here.  Rent today!,1595,1,,-122.685597,38.360584
676,6731701099,Move in specials! 1x1 starting at $1895 and $1000 off MI!!! Call today,1895,1,560,-121.865793,37.663004
677,6741561347,1BR/1BA Apt on the luxurious and exclusive Santana Row Available Now!,3552,1,765,-121.935600,37.316300
678,6741561270,Elegant Art Deco Top Flr 1BD/1BA Unit w/City Views,3600,1,900,-122.447768,37.788992
679,6741561195,1 bedroom 1 bath  apartment in beautiful SRJC area,1425,1,,-122.710697,38.453111
680,6729017268,Laurel Heights/pets ok/VIEW!LG 1bed/deck/park/laundry!,3500,1,,-122.449209,37.784196
681,6741560465,"Online payments available, On-site bike storage, Rooftop dog run",3706,1,654,-122.388640,37.761324
682,6741560245,LOVE WHERE YOU LIVE! MOVE IN TODAY! Pet friendly and great shopping.,4360,2,1080,-122.112230,37.403440
683,6741558395,MOVE IN SPECIAL!!! Updated 3 Bedroom Open floor plan,2850,3,,-122.065872,37.677840
684,6741560047,The New Epitome of Luxury Apartments - $500 off Your 1st Month!,2900,1,654,-121.908566,37.318884
685,6731424954,$1075-1br 400ft2 ROOM FOR RENT (#G) SHARED COMMON AREA VICTORIAN,1075,1,400,-121.891605,37.341549
686,6731425179,$1075-1br 400ft2 ROOM FOR RENT (#G) SHARED COMMON AREA VICTORIAN,1075,1,400,-121.891605,37.341549
687,6741559637,Lease today! Receive $500! Spacious 1x1 w/ Upgraded Floors!,2495,1,823,-122.033606,37.305968
688,6733463286,Peaceful and bright 1 bedroom/1 bath in-law,2600,1,800,-122.505200,37.542800
689,6741559449,House in Healdsburg/Dry Creek Valley,2700,2,1100,-122.915128,38.642435
690,6741559370,Sunny & Spacious Midtown Terrace Single Family Home w/ 2-Car Garage.,5200,3,1650,-122.445865,37.747217
691,6741559366,New Discounts! Beautiful 2 Bedroom/2 Bath Luxury Apartment! $500 Off!,3133,2,1038,-121.887000,37.347600
692,6741559367,"SPACIOUS 1BR, 1BA CONDO NEAR DOWNTOWN LOS GATOS CAMPBELL $1,900",1900,1,750,-121.976277,37.261725
693,6741559104,"Eat, Love, Live @ 201 Marshall- Six Weeks Free!!!",3865,2,879,-122.231476,37.485637
694,6741558719,Dog friendly studio with private yard,1600,1,500,-122.688468,38.319724
695,6719332884,Spacious Renovated 3 Bedrooms 2 Bath house in Hayward,2988,3,1354,-122.058573,37.634832
696,6719304239,Spacious 4 Bedrooms 2 Bath House in Hayward,3195,4,2054,-122.045377,37.680402
697,6741558491,Single story one bedroom homes!  Next to Safeway and many Restaurants!,2848,1,694,-122.072172,37.379740
698,6729942887,SUNNY | TOP FLOOR | 1BD/1BA | PAC HEIGHTS CLASSIC | Rob Orlando,3725,1,,-122.439136,37.790081
699,6720561971,RENTED! | 81 LANSING | PENTHOUSE 1BA/1BA| Rob Orlando | SFRES,4600,1,,-122.393445,37.786472
700,6741558314,"Additional storage available, Business center and WiFi café!!",2635,1,776,-121.927025,37.419793
701,6741558264,"Leasing Now, Controlled Access, Cats and Dogs OK",3589,2,940,-122.064613,37.374786
702,6721148126,"2648 Shadow Mountain Dr., San Ramon",2600,2,1427,-121.979871,37.771020
703,6724172965,"7614 Corrinne Place, San Ramon",3495,3,1532,-121.939337,37.724344
704,6726612745,Marina 2bed/VannChestnut/hrdwd/LOCATION!,3495,2,,-122.434200,37.799900
705,6741557736,Everything You Need. All Right Here.,1745,2,850,-122.019819,38.251119
706,6729419412,TOP flr 1bed/ColeVly/hrdwd/laundry/deck....2secs to MUNI!,2795,1,,-122.450335,37.767665
707,6741540777,⁑^⁑ Are you tired of being a landlord? ⁑^⁑,100,,,-122.222300,37.847100
708,6726620522,SOMA 2bed/hrdwd/close to downtown and freeway!,2695,2,,-122.410611,37.775428
709,6737022488,REMOD/spacious 2bed/spruce and Geary/hrdwd/dishwasher/laundry!,3000,2,,-122.453170,37.781717
710,6733570461,Fantastic 3 Bedrooms 2 bath,2850,3,1348,-122.141837,37.681004
711,6741557374,Save $500 on Rent*Private Patio* 2nd Floor*Great Location,2450,2,803,-122.022421,37.583086
712,6724282679,FREE MONTH'S RENT*: Fully Remodeled 'Townhouse' Style 2 Bed/ 1 Bath,2695,2,,-122.293196,37.865740
713,6741556996,Hurry to Catch This Great Deal $2000 Off! Aviare 2x2 Apartment Home,3200,2,957,-122.032205,37.336870
714,6741556616,1x1 Apartment For Lease With Park Like View,2564,1,700,-121.816964,37.254226
715,6724283035,FREE MONTH'S RENT*: Large Fully Remodeled 5 Bed in Heart of Berkeley,5995,5,,-122.259014,37.865867
716,6741556453,LUXURY AT ITS FINEST! CROWN MOLDING & QUARTZ!,3448,2,870,-122.256739,37.554781
717,6741556220,Cottage in country setting,1750,,,-121.658356,37.128245
718,6741556156,2 Bedroom Available In Downtown Oakland!,2395,2,1800,-122.267866,37.803876
719,6741556012,$4985 3bd 3ba 2387sf Sleepy Hollow Orinda,4985,3,2387,-122.173295,37.896667
720,6741536857,Fulton & Steiner/Great Location!Pets Ok!W&D/$95 Move In Special!,3695,1,,-122.433085,37.777507
721,6741555435,$500 Move in Special! Our Last 1x1 Home! Ground Floor!,2495,1,823,-122.033606,37.305968
722,6741500845,Charming One Bedroom in Duplex in San Jose,2050,1,600,-121.892766,37.346841
723,6738219729,"West San Jose large renovated 2 bedroom, one block from Santana Row",2345,,1100,-121.962300,37.310800
724,6741541573,"Breakfast Nook, Hardwood Floors, Golden Gate Park Out Your Window",2895,1,,-122.465659,37.762198
725,6741555033,Live Well! Live Fourth Street East!,3167,1,709,-122.273907,37.796330
726,6741554969,Just what you're looking for!  RENT NOW!,1850,2,,-122.685597,38.360584
727,6729931784,SAN JOSE WEST - Beautifully remodeled spacious home in great neighbor,3800,3,1500,-121.917601,37.291057
728,6741554651,Open House This Weekend - Come Say Hello,4430,2,1520,-121.908566,37.318884
729,6741554597,"Price Drop!!! Come One, Come All, Pets Big and Small!",2175,1,650,-122.527594,37.969861
730,6741554575,Celebrate Fall In Your New 1BD 1BA APT Home!!!,2078,1,600,-122.020972,37.589434
731,6741554539,Sleek & Modern 1bd/1ba Condo w/Pkg Included @ Marlow!,3900,1,754,-122.422527,37.792196
732,6741554525,"$99 Deposit , 2 Parking Spaces, W&D, & Storage!",2195,2,810,-122.706338,38.439199
733,6729931379,San Jose/Cupertino Border newly renovated apt; Cupertino schools,2575,2,800,-122.000200,37.306600
734,6741554378,5881 Cabral Ave - Newly remodeled family home that won't last long!,3500,3,1409,-121.854964,37.242743
735,6741554306,Spacious 2X1 Apt Available Now!,2118,2,808,-122.099755,37.995030
736,6725097713,WILLOW GLEN/ CAMBRIAN - Elegantly remodeled with stunning yard &poolo,4000,3,1300,-121.891701,37.270569
737,6721787942,"CAMBRIAN/ ALMADEN - Attractive townhome with attch grg, great location",3200,4,1450,-121.886599,37.245309
738,6718374795,"LOS GATOS - Executive custom craftsman home, Los Gatos Schools",7500,4,2850,-121.949667,37.235844
739,6741553944,Gorgeous Remodeled 2 Bedroom Unit 1 block from Lombard St.,4745,2,,-122.442846,37.799978
740,6741530846,"""ALL NEW"" 2Bdrm, 1Bath, 4-Plex in Berkeley",2795,2,,-122.285100,37.865600
741,6731159518,"Avail Now!! Large 2 bed near Westlake & bart, parking , pets ok",2750,2,,-122.476430,37.691745
742,6741553497,1152sq ft 2 bedroom 2 bathroom available NOW!,2085,2,1152,-122.034180,38.285979
743,6736100582,"Gorgeous, Spacious and Modern 2bd 2bath",5200,2,1365,-122.411593,37.749436
744,6741552453,"Save $1,001 By Living In Our Beautiful Garden Community!!",2802,2,1015,-121.880000,37.386400
745,6741553079,"best,/Exceptional, + 975 s.q.f.t, - High-Rise - Axis SF + unit!",3300,2,975,-122.418656,37.788910
746,6741553075,Spacious L/W Loft w/ Prkg-Steps from AT&T Park!,4800,1,1798,-122.391286,37.781214
747,6728328745,Gorgeous 1x1 Home with UPGRADED FLOORS! Tons of Storage!,2495,1,823,-122.033606,37.305968
748,6741553041,"Huge 2x1.5 Townhome Ready Now! A/C, W/D, Close to BART",2800,2,1050,-121.995997,37.558468
749,6724114134,Upgraded 1x1! Huge floorplan! Plenty of storage! Great location!,2495,1,823,-122.033606,37.305968
750,6741552866,COME JOIN OUR COMMUNITY! 2BD/2BA LOCATED MINUTES TO DOWNTOWN HAYWARD!,2195,2,,-122.072627,37.631371
751,6741539731,"Outdoor fireplace lounge, Pet park & dog wash, First floor retail",2883,1,800,-121.905818,37.323641
752,6741552740,"1/bd 1/ba, Available for rent, In Vacaville",1756,1,790,-121.988700,38.384700
753,6741552685,2BR/1BA Home w/ Outdoor Playground & Swimming Pool,2494,2,880,-121.816900,37.254380
754,6733331302,"Updated 3 Bed/2 Bath in Oakmont, 55+! Lease Opt./Seller Fin. Possible!",2800,3,1739,-122.596069,38.432190
755,6741552161,The Epicenter of Luxury and Convenience + 2 Weeks FREE!!,2820,1,706,-122.293468,37.846477
756,6741537946,Centrally Located Downtown Apartment Near SoMa,1995,,,-122.414389,37.782751
757,6741551710,Unique Brick & Timber Live/Work Loft at Historic Oriental Warehouse!,5400,1,1591,-122.389370,37.783232
758,6741538564,"""FULLY REMODELED"" 2Bdrm, 1Bath, Duplex in Berkeley",2495,2,,-122.285100,37.865600
759,6741551398,Best Community in Sunnyvale,3531,1,761,-122.036242,37.371805
760,6741537282,Pine & Powell/Available Now/Pets!Great Location!$95 Move In Special!,3895,1,,-122.409547,37.791017
761,6741551341,Apply Before Anyone Else!! Studio with Rent Control and Bay View,2644,,450,-122.417402,37.776619
762,6739047980,NEWLY REMODELED 3 BEDROOM SINGLE-LEVEL WEST NAPA HOME,2900,3,1100,-122.302054,38.308704
763,6734126180,WATERFRONT SOUTH NAPA HOME!!,3500,3,1700,-122.309691,38.212006
764,6727284084,THIS IMMACULATE ST. HELENA ESTATE. PETS CONSIDERED!,7400,5,4210,-122.461900,38.513800
765,6741551076,"Fitness Center, Ceramic Tile Entry, Kitchens & Baths, Poolside BBQs",2138,2,1136,-121.988700,38.384700
766,6720617786,GRAND NEWLY RENOVATED ESTATE - ONLY A FEW MILES TO DOWNTOWN ST. HELENA,20000,6,,-122.461510,38.553066
767,6724158516,GORGEOUS REMODELED SINGLE LEVEL 3 BEDROOM DOWNTOWN SONOMA HOME!,3000,3,1389,-122.467252,38.302822
768,6741550886,Very Nice Two Bedroom Floor Plan with Pool View available!,4044,2,1360,-122.402444,37.582973
769,6741550885,5 BR San Rafael/Terra Linda Home Near Open Space with View,4700,5,2800,-122.564302,38.020779
770,6739122661,GORGEOUS 2 BEDROOM SINGLE-LEVEL EAST NAPA HOME,2150,2,1100,-122.281533,38.310489
771,6741550551,3BR 2BA In The Heart of Emeryville Available Now!,4740,3,1239,-122.288838,37.839272
772,6741550553,Excellent Savings$$ $2000 Off! at Aviare 2x2! - $3250,3250,2,971,-122.032205,37.336870
773,6741550537,Bring on the Tapas: Spanish-Styled Home by the Water!,4395,2,,-122.442132,37.804917
774,6737029353,SAN JOSE 1 BEDROOM UNIT FOR RENT****NEW***JUST REMODEL******,1495,1,500,-121.819464,37.356240
775,6738618418,One Bedroom LOVELY Apartment @SF,2000,1,400,-122.402000,37.600400
776,6736815303,"Very Large, Updated 1 Bedroom Plus Office in Adams Point!",2950,1,1013,-122.258280,37.813127
777,6741549825,Cozy apartment living in Downtown Hayward 2Bed/1 bath Available Now!!!,2215,2,850,-122.089400,37.674000
778,6741550125,"1 bedroom Home w/Patio and High Ceilings Available Now, Call Today!",3400,1,693,-122.299800,37.539500
779,6737028831,- SAN JOSE  1 BEDROOM UNIT FOR RENT*****JUST REMODEL*****,1595,1,500,-121.819464,37.356240
780,6741549997,"In Select Apartment Homes, Fireplace, Controlled Access/Gated",2138,2,1136,-121.988700,38.384700
781,6741549990,Bask In Beautiful Afternoon Sunlight In This Gorgeous 1 Bed Home!!,4274,1,761,-122.403979,37.769428
782,6741549814,VISIT FOX PLAZA TODAY! WE HAVE THE PERFECT STUDIO!!,2904,,450,-122.417402,37.776619
783,6727361968,ONE Bedroom Apart. Available NEXT to light Rail in Down Town (Gish),1795,1,,-121.908734,37.362244
784,6741496383,***SPECIAL*** Live Radiantly at Radius - 1x1 Available NOW!,3117,1,769,-122.230883,37.491212
785,6735745857,"341-1: LARGE 1B/1B - great city view, close to Caltrain/Safeway/Coffee",4239,1,935,-122.394111,37.776549
786,6741549203,Great Value in Sharon Heights,2995,1,739,-122.207236,37.423991
787,6741549024,Plan Ahead  Secure Your Next Home Today!,2699,1,700,-121.941519,37.296060
788,6718190083,"The Ellington, luxury condo with Downtown View and private balcony",3195,1,690,-122.276690,37.796585
789,6739925483,Fully Renovated Contemporary designer 2 story Condo,4000,2,1227,-121.958898,36.980613
790,6733237958,2 Bedroom 1 bath New Hardwood floors downtown Menlo,2900,2,,-122.182817,37.451763
791,6741548679,Fully Furnished Studio W/Free WiFi & Cable TV,3060,,,-121.895000,37.435200
792,6741548612,CORNER 1 BEDROOM APARTMENT AVAILABLE!,3542,1,672,-122.417402,37.776619
793,6736852492,Jan 2019 available in Gale Ranch,5000,3,1811,-121.913652,37.764744
794,6733249186,Newly Remodeled 2 Bed 1 Bath San Jose ASK ABOUT MOVE IN BONUS,2395,2,,-121.930681,37.279089
795,6735981867,2 Bed 1 Bath Apartment in Union City | 34843 Starling Drive #4,2275,2,,-122.018753,37.583080
796,6741546169,OPENHOUSE - Sunday 11/11 - 3bed/2bath San Juan Canyon home,2800,3,1600,-121.489636,36.800553
797,6735967997,2 Bed 1 Bath House in Concord | 3654 Granzotto Drive,2785,2,1003,-122.006970,37.984903
798,6741548314,"Fireplace, Ceramic Tile Entry, Kitchens & Baths, Patio/Balcony",2188,2,1240,-121.988700,38.384700
799,6737028087,-***SAN JOSE NEW LARGE STUDIO 1 BEDROOM FOR RENT***QUIET AREA*********,1495,1,500,-121.817415,37.350432
800,6735958362,$500 off 1st month! 3 Bed 2 Bath House in Windsor | 346 Summer Rain Dr,2695,3,1500,-122.810995,38.552764
801,6741540406,"Top Floor] Single Bedroom, Full of Natural Sunlight .. Available *NOW*",2865,1,871,-121.933623,37.346332
802,6741548151,"Great floor plan, bright, pretty and close to everything!",2020,2,803,-122.094430,37.990951
803,6741547063,One Bedroom! NEW Carpet/Flooring! New Counter Tops !!,1875,1,728,-122.076052,37.668766
804,6735979546,Free Utilities! Geodesic 2 Bed 2 Bath House in Santa Rosa | 2615 Alton,3495,2,1800,-122.772394,38.474728
805,6741547962,Vintage Valencia With Upscale Upgrades - $95 Move-In Special,3295,,,-122.421403,37.758491
806,6735965864,2 Bed 1 Bath House in Alameda | 1413 9th St,2795,2,1000,-122.264800,37.770600
807,6741542314,Adj to Beautiful Park Intel Apple This place will feel like home Dogs OK br1,1880,1,483,-122.013295,37.387381
808,6741547822,Beautiful 2BR 2BA penthouse condo for rent Prime Milpitas $2950 per mo,2950,2,1108,-121.902367,37.410739
809,6718176155,House For Rent - EVERYTHING REMODELED!!!,5850,4,2800,-122.571400,38.116300
810,6741547079,"Large, sunny, quiet apt near public transportation.",2995,2,725,-122.505747,37.764024
811,6732934297,Lease to own opportunity,2600,4,2226,-121.467419,37.723207
812,6741547001,Heaven Is At One Henry Adams - Sensational Corner Two Bed!!,5159,2,1022,-122.403979,37.769428
813,6741547386,Looking for a commuter friendly location? Need a 1BR,2787,1,754,-122.359378,37.586470
814,6741547270,"Pool, Soaking Tub, Granite Look Counter, WD",2234,2,970,-122.128668,38.214247
815,6732937968,Jan 2019 available in Gale Ranch,5000,3,1811,-121.913567,37.764676
816,6738303161,Charming 1-Bedroom in Hayes Valley!,2995,1,,-122.426126,37.774768
817,6741547019,"Lease Now, Fireplace, Pantry, Granite Look Countertops, BBQ",1976,1,850,-122.128668,38.214247
818,6741546732,"Pool, Soaking Tub, Granite Look Counter, WD",2292,2,1073,-122.128668,38.214247
819,6741546684,Lowest Priced 1x1 Available on 11/24! Get it before it's gone!,2293,1,737,-121.891894,37.351345
820,6741546556,"Steps from University Ave, CalTrain Station and Major Bus Stops!",3260,,606,-122.161375,37.449438
821,6734402469,One Bedroom Top Floor Available Late November,1875,1,728,-122.089400,37.674000
822,6741546257,"Pool, Soaking Tub, Near Freeway, Parking",2205,1,975,-122.128668,38.214247
823,6741546151,Sharp Apartment w/2 Covered Parking Spaces & Storage,2475,2,950,-122.114889,37.696039
824,6738318608,LARGE Modern Studio in Marina!,2425,,,-122.428130,37.803342
825,6734402010,One Bedroom Top Floor Available Now,1875,1,728,-122.089400,37.674000
826,6741545574,KOHLER FIXTURES & GRANITE COUNTERTOPS IN MODERN HOMES,4071,3,1327,-121.949282,37.313002
827,6740015621,A home made just for you! Tour Today!,2225,1,525,-122.020104,36.986546
828,6730829483,Spacious 3Bed/2Bath - Newly Renovated and Pet Friendly!,6180,3,1340,-122.197612,37.424205
829,6739354944,Open House Coming Soon!,2650,2,700,-122.018366,36.969061
830,6741545218,VISIT FOX PLAZA TODAY AND APPLY TODAY!!,2691,,450,-122.417402,37.776619
831,6741545090,"Beautifully Renovated 2 Bedroom, Across from UC Berkeley!",2995,2,,-122.265500,37.878400
832,6741544673,"Classy 3bed, 1bath single home for rent",1300,3,1408,-122.687800,38.453400
833,6737468039,***Section 8 Delight*** Excellent Schoold District***,3318,3,1200,-122.238442,37.760485
834,6741544588,"Delightful 1 bedroom, 1 bath",2395,1,,-122.237534,37.486647
835,6736469224,"2Bd @ Woodcreek in Petaluma, Move-In 12/1 Unit W-0ACBF",2199,2,,-122.635789,38.228050
836,6741544269,"Large Renovated West Oakland Studio/Junior 1BR, Pets Negotiabl",1700,,,-122.427927,37.799007
837,6738381915,SPACIOUS Studio in North Beach W/Parking!,2300,,,-122.406389,37.799205
838,6741543983,2 bedroom 1 bathroom,1680,2,500,-122.158700,37.720500
839,6741543983,2 bedroom 1 bathroom,1680,2,500,-122.158700,37.720500
840,6741538401,Franklin & Ellis St./Pets Ok/Available Now! $95 Move In Special!,4095,2,,-122.422562,37.783170
841,6741543954,Excellent Location In The Desired Redwood Shores!,3634,2,916,-122.243513,37.537302
842,6741543741,Affordable Apartment in San Leandro,2375,2,950,-122.114889,37.696039
843,6741543519,Entertain In This Divine & Spacious Three Bed This Holiday Season!!,7264,2,1298,-122.403979,37.769428
844,6738384434,Fantastic Russian Hill 1 Bedroom W/Parking Included!,2600,1,,-122.420165,37.800802
845,6741542923,Very Private & Large Util Paid Dogs Cats Ok Pool  Beautiful Trees bh_44,2295,1,684,-121.937268,37.336741
846,6741528473,Gorgeous Layout in this 3 Bedroom Home Available NOW! 1 month FREE,4410,3,1379,-121.933623,37.346332
847,6741542485,2x2 Apartment Next to a Beautiful Lake View!  $99 Security Deposit OAC,3049,2,899,-122.286078,37.548751
848,6741542390,"Fully Furnished, Move-in Ready, Walk-in Closet, Storage, Pets OK",3100,1,800,-122.420762,37.804817
849,6741542133,Love Where You Live!! Stop By Today!! 4 Weeks FREE!!,2226,1,845,-121.830600,37.245800
850,6741524477,"""ALL REMODELED"" 3Bdrm, 2Bath, SFR in Berkeley",3995,3,,-122.285100,37.865600
851,6741542091,Live at the Center of Modern Conveniences & Entertainment!,2276,2,975,-122.141320,37.708034
852,6741541989,2 bedroom duplex w/1 car garage!,1750,2,,-122.632396,38.243336
853,6737534544,Granny unit studio for rent,2300,,,-122.677700,38.240300
854,6741541016,"Don't Waste Your Time, Look Here!! You'll Be Happy You Did!!",2625,2,1077,-121.830600,37.245800
855,6741448430,Move in Ready Two Bedroom Townhome! Call Today!,4469,2,1457,-121.935600,37.316300
856,6741540784,Spacious 2Bed/1Bath - Newly Renovated and Pet Friendly -Inquire Today!,4926,2,990,-122.197612,37.424205
857,6741527430,Corner Townhome #114!! A Must See Apt! Amenities Included w/ Rent!!,6030,2,1388,-122.426621,37.771804
858,6741540369,Sunny Top Floor Castro Unit - JGPM,2795,1,,-122.435548,37.766528
859,6741540234,Available NOW super cozy unit you can call home,3282,,645,-122.397100,37.762100
860,6741539954,3BR/1.5BA APARTMENT W/ LAUNDRY FACILITY IN THE COMMUNITY,2862,3,1235,-121.816943,37.254141
861,6741539894,In Law unit /Casit for rent.,1900,1,700,-121.915500,37.763600
862,6741539800,"Spacious 1X1 In Sunnyvale With Washer/Dryer, Fireplace, & Parking",2994,1,693,-122.010373,37.352573
863,6741539728,"Save $1,501 On Your New Spacious, Renovated Home! COME TOUR!",2661,1,860,-121.880000,37.386400
864,6741539435,$99 dep special OAC & waived app fee (48hrs)! Upgraded 2 bed Call now!,2378,2,1075,-121.875230,37.676530
865,6736449257,1-Bdrm Apt Available close to Apple Google LinkedIn & more!,2195,1,650,-122.026025,37.398048
866,6724402712,Ritz Carlton Luxury Condo ( Fully Furnished) Available NOV 1st,9500,2,1396,-122.399149,37.791017
867,6738395722,"Night Patrol, Playground, Additional Storage",1530,1,708,-121.864673,38.008321
868,6737984222,"Large Beautiful, Modern Home in Move-In Condition. Must See!",5200,4,,-122.477122,37.748141
869,6737985486,"Beautiful, Updated Large Home for Rent",5200,4,,-122.477122,37.748141
870,6741538637,1x1 Apartment near great shopping! $99 Security Deposit OAC,2609,1,609,-122.286145,37.548594
871,6736019433,Apartamento nuevo de 2x2,1249,2,909,-122.197053,37.754188
872,6736024564,Căn hộ 2 phòng ngủ mới,1249,2,909,-122.197053,37.754188
873,6737982663,"Beautiful, Updated Large Home for Rent",5200,4,,-122.477122,37.748141
874,6741538496,$500 off Views | W/D | Fireplace | Private Balcony | Clubhouse + Gym!,3674,2,1179,-122.423353,37.709251
875,6736895941,Beautiful 4/2.5  End Unit TownHome for $3500,3500,4,,-121.849000,37.268500
876,6741537595,Bright and Sunny with Large Private Patio and W/D!,2428,1,600,-122.025949,37.362341
877,6741538458,"3 bd 2 ba house, 2 car attached garage",3150,3,1100,-121.797262,37.266343
878,6737980254,"Large Beautifully Updated, Modern 4 Bedroom / 2 Bath",5200,4,,-122.477122,37.748141
879,6741538410,"2 BD, Roman Soaking Tub, Poolside BBQs",2138,2,1136,-121.988700,38.384700
880,6741538232,FALL SPECIAL!!! Modern Luxury 2BD in San Pedro Sq High Rise!!!,3190,2,1090,-121.895329,37.335920
881,6741537943,"Seeking Luxury, Comfort, Top Floor Unit? Amalfi's Got It!",2576,2,829,-121.890167,37.419639
882,6738270156,Come Check Out Harvest Park Apartments!,2415,2,1210,-122.710054,38.411338
883,6741537890,"When Minutes Matter, Live Where You Work and Play",4993,2,1113,-122.391183,37.772721
884,6741537826,1BR/1BA LUXURY UNIT W/BALCONY!! ~ FREE WEBPASS INTERNET FOR 1 YEAR~,3641,1,578,-122.418171,37.777516
885,6741532210,"1x1 Fully Upgraded Gem! A/C, W&D, Storage, and more!",1895,1,641,-122.676649,38.438102
886,6739889136,"Sparkling Swimming Pool, Crown Molding, Private Patio/Balcony",1895,1,716,-122.687097,38.415112
887,6741536282,950 Nice Bright Rm@Single House near Park/ Fwy101 680 880 Rightway,950,1,,-121.885545,37.364110
888,6741537547,La Catania 2x2 With Defined Dining Area - South Hill View! Tour Today!,2961,2,1258,-121.830600,37.245800
889,6741537473,CHARMING SIX-PLEX,1945,1,710,-122.238314,37.803833
890,6741537233,Be the first to live in this luxury 2x2!,1249,2,1030,-122.197053,37.754188
891,6741537013,Lafayette Cottage Charmer,4300,3,1800,-122.098075,37.902224
892,6741536778,"Spectacular Panoramic City Skyline&Bay views, Stunningly remodeded!",3650,1,,-122.446942,37.757229
893,6741536756,Save More Today! Lovely 2x2 With Attached Garage! Ready Now!,2973,2,1294,-121.830600,37.245800
894,6741536426,"Large Living space, Walk in closet, ground floor, separate kitchen",2050,,530,-122.014422,37.357971
895,6741536409,Lupine @ Wood/Available Now/Pets Ok/Great Location!$95 Move In Special,3395,1,,-122.447927,37.783752
896,6741536220,Amazing Victorian Home for rent,2800,2,1400,-122.181807,37.702104
897,6741536106,"Everything You Need, All Right Here",4993,2,1113,-122.391183,37.772721
898,6741535957,"1B/1B, Roman Soaking Tub, Situated in Vacaville!",1756,1,790,-121.988700,38.384700
899,6741535634,Large One Bedroom With Open Floor Plan! Fully Renovated,2564,1,700,-121.816943,37.254277
900,6741535566,"**SAVE $1000** Mountain View 2BR apt, Modern kitchen, We love pets!",3295,2,1100,-122.102777,37.400633
901,6741535451,"SPECIAL SAVINGS! Downtown San Jose 1BR apt, Must see, Modern kitchen",2795,1,1001,-121.888042,37.336653
902,6741535395,Meat and Greet at the BBQ of This Marina Dream Home,5395,2,,-122.446039,37.798949
903,6741535250,Looking to move? Come visit the beautiful Fiori Estates! 1 bdrm avail!,2140,1,712,-122.716942,38.355455
904,6739921177,"walk to all three Irvington schools, 3Br /2 Bth Duplex home",2880,3,1100,-121.964971,37.527037
905,6741534907,"Now Available, Controlled Access, Close to Transit",3995,1,728,-122.391187,37.773083
906,6741534828,"Fitness Studio, Fireplace, Pantry, Dishwasher, Patio, WD",1774,1,715,-122.128668,38.214247
907,6741534599,Top Floor Privacy!  Newly Renovated Sunny Two Bedroom,2978,2,850,-122.025949,37.362341
908,6741534350,Spread Your Wings and Flock to the City's Best-Kept Secret,4995,2,,-122.425111,37.737551
909,6739217259,"Amazing location, beautiful organic view, min to DTN WillowGlen",1995,1,,-121.904377,37.311734
910,6741534048,Move In Special! Up to $750 Off your Move-in Costs!,1977,1,688,-122.731498,38.453011
911,6741534041,A DELIGHTFUL JEWEL all Move in Ready!,2895,,536,-122.424466,37.744703
912,6741533961,Fabulous Remodeled 2 Bedroom- with laundry,4500,2,,-122.409100,37.800200
913,6738125581,Breathtaking view of beautiful trees - Dont miss out-PerfectLocation!,1995,1,,-121.904377,37.311734
914,6741533562,2 Bedroom/1.5 Bath Unit in Hip Hayes Valley Area,4100,2,,-122.421123,37.776036
915,6741533211,Home Is Where Roots Grow Deep here in San Leandro!,2094,1,750,-122.153249,37.716995
916,6741533050,Beautifully Remodeled 2BD 1BA Unit in San Bruno - JGPM,2750,2,,-122.430884,37.619935
917,6741532952,RARE VACANCY in this luxury apartment!,2543,2,1029,-122.055385,37.957477
918,6741532954,Antioch Dream Home!,2495,4,1680,-121.778081,37.958429
919,6741532919,Large 3bd/3bath Unit with Parking & Private Deck!,5600,3,,-122.423837,37.796661
920,6741532861,Excellent 2 Bedroom 2 Bath Flat Apartment At A Great Price!,3300,2,1105,-122.016115,37.402136
921,6741532824,Beautiful 3 bedroom apartment available soon!,3132,3,1194,-121.915500,37.763600
922,6741532750,Newly built 3 bedroom 2 bath townhouse across the street from BART,3800,3,1750,-121.900225,37.706350
923,6741532736,$500 Look & Lease Special on 1Bedroom Apartment!!!,2142,1,632,-122.300187,37.867284
924,6741532561,"Modern Amenities, Smoke Free, Yoga Studio",3704,2,977,-122.270141,37.565141
925,6735920312,*Spacious 1 Bedroom in the Dogpatch,3640,1,648,-122.391322,37.759214
926,6741531761,"Location Location Location!min 2 DTN/great schools/awesome parks, etc.",1995,1,,-121.904377,37.311734
927,6741531253,cute and spacious Marin studio,1850,1,,-122.514963,37.986061
928,6741530921,Second Floor Two Bedroom w/ Gorgeous Courtyard View,3045,2,1000,-121.941519,37.296060
929,6741530627,Lovely 2 Bedroom with Spectacular Baseball Field Views!!,3385,2,1187,-121.933623,37.346332
930,6741530588,"Convenient to BART and 580/680 Access, BBQ Grills, Sunken Tubs",3199,2,1419,-121.911587,37.704357
931,6735932182,Last 1x1 Home available! Tons of Space! Ground Floor! Best Schools!,2495,1,823,-122.033606,37.305968
932,6741530452,2 bedroom 1 bath in Fairfax ~ Close to Downtown,2450,2,800,-122.593700,37.988300
933,6741530371,Gorgeous 2X2 W/ Attached Garage!! 6 Weeks FREE!!,2915,2,1169,-121.830600,37.245800
934,6741529971,MOVE IN SPECIAL - Large Flat 2 PLUS BR - JGPM,3650,2,,-122.418141,37.746464
935,6741518933,***SPECIAL*** Top Floor 2x2 Available - Minutes From Downtown RWC,4407,2,1030,-122.230883,37.491212
936,6741529896,Looking for A Bigger Place...Try Us! 2 bed 2 bath ready for move in!,2385,2,1260,-121.735842,37.958996
937,6730210654,Move in this week! Call us Today!,2210,2,1200,-121.845001,37.314795
938,6741529723,IMPRESSIVE LUXURY COMMUNITY ON THE WATER!,3563,2,960,-122.267017,37.555669
939,6741529529,Berkeley Hills Beauty - Bay Views Hardwood Floors - Laundry In Unit!,2150,1,,-122.267537,37.892354
940,6741529517,"All New, Car Charging Station, WD In Apartment! 1 Month Free Rent",4398,2,1082,-122.269216,37.565529
941,6739532132,Sunny spacious Garden perch Apartment - Near BART - Dreamy yard,1650,1,444,-122.225579,37.777828
942,6741529247,Experience All the Benefits of Downtown Palo Alto Living!,5939,2,945,-122.156875,37.446638
943,6741529187,NEW 1bdrm/1bath LOFT Apartment,3095,1,900,-122.291880,37.846826
944,6741529188,"In Home Laundry, Landscaped Courtyard, Convenient Location",3435,2,1021,-122.034710,37.368048
945,6741529028,Huge 2BR Is Right Around The Corner!! Near Everywhere You Want To Be!!,2495,2,1000,-122.021172,37.572235
946,6730086554,Call today to book your tour!,2290,2,1200,-121.845001,37.314795
947,6741528745,Almaden Valley Single Family Home for Rent,4400,4,1795,-121.867450,37.217844
948,6728028384,townhouse in prime location,2750,2,,-121.986743,37.262224
949,6741528463,Newly Remodeled 1BR/1BA near San Bruno and Campbell 3070 San Bruno #9,2695,1,,-122.401741,37.723143
950,6741528396,STOP! THIS IS IT! This Newly Renovated 1 BR is Your New Home!,2950,1,823,-122.464687,37.685247
951,6730212773,Large 3 Bedroom 2 Bath Apartment! Now Available!,2825,3,1438,-121.845001,37.314795
952,6741523878,**HIGH STANDARD 2 BEDROOM APARTMENT WITH GREAT AMENITIES**,3635,2,1336,-122.016115,37.402136
953,6741528001,Charming Noe Valley Garden Cottage (parking included),4600,1,,-122.435759,37.755333
954,6736663050,"$2,050 Studio Apartment - Rose-Mar Apartments",2050,1,,-122.400100,37.681100
955,6730086783,Call today to book your tour!,2280,2,1200,-121.845001,37.314795
956,6741527675,1 Bedroom Home- 750 Sq Ft Available NOW!,2929,1,750,-122.127424,37.432099
957,6724212301,"Very Rare Live/Work Opportunity in Historic Winery Building (2,350 SF)",9400,,,-122.409243,37.754267
958,6741527504,"Raintree Terrace, Fairfield",1800,2,860,-122.034010,38.282060
959,6741512904,1x1 Ready Now! *SPECIAL* Renovated!,2396,1,704,-121.964081,37.558079
960,6741527329,"▄  Urban Loft - Like New Loft, 1.5 BA, Attached Garage ▄",2895,1,960,-121.901600,37.339100
961,6738540930,Tuscany/Communication Hill 2 bedrooms 2 baths 95136,3000,2,1104,-121.860638,37.286516
962,6741526787,2 BR 1 BA Upgraded Kitchn&Bth Nu Paint Nu Carpet Fireplace,3395,2,,-122.442639,37.756375
963,6739235991,Moderate Income Program Apartment Coming Available! This will go fast!,2835,1,750,-122.127424,37.432099
964,6741526473,Remodeled 2 Bedroom Cul-de-sac House In Quite Neighborhood,3200,2,1296,-122.006114,37.564970
965,6741516479,"Lease Today, Zip Cars On Site, Granite Countertops",3330,2,1070,-121.937991,37.407940
966,6741526396,1 BD/1 BA in Santa Clara close to CalTrain!! 1 MONTH FREE!,2980,1,871,-121.933623,37.346332
967,6741526378,"Exhale to Relaxing Picturesque Setting of Hillside, Sunset View 1x1!!!",2721,1,600,-122.300837,37.508625
968,6741526387,"Lease Today, Nest Thermostat, TRX Bands and Pilates Area",2629,1,795,-121.931996,37.404950
969,6737713904,Remodeled house with big yard in nice neighborhood. Pets friendly.,3300,3,1221,-121.904224,37.264819
970,6741526318,"UCSF, INNER SUNSET,Spacious, well lit, hardwood floors, Art Deco, 1 BR",2800,1,800,-122.462842,37.760452
971,6718231551,Brand NEW Townhome 3Bdrms + 3 &1/2 Bath  - Best Place in,3495,3,1682,-122.049700,37.589500
972,6718275844,Gorgeous Contemporary Home like-NEW 2 Bed & 2 Bath Condo in San Ramon,2400,2,951,-121.962560,37.775551
973,6726983479,Lovely Brand NEW 4 bdrm Single Home for Rent in Newark,4500,4,2239,-122.032000,37.536800
974,6738218198,"NEW wood-style flooring, Lots of storage, Modern kitchen, 1BR 1BA apt",1925,1,634,-122.055889,37.898820
975,6732034221,Ready to move in-One Bedroom Apartment,1650,1,600,-122.284327,37.960027
976,6741525719,Remodeled Home for Lease - 38th Geary/Anza,4500,4,,-122.498665,37.779455
977,6732438640,Beautiful Mission Condo,1995,2,1034,-122.674373,38.458954
978,6737299800,SHORT OR LONG TERM RENTAL,2400,2,,-122.143018,37.428500
979,6741525629,Large fully updated 2x1.5 Townhome near Hwy. 12!,2395,2,1000,-122.671144,38.439545
980,6741525528,"SPECTACULAR, ONE OF A KIND 3 BED/ 1 BATH NOE VALLEY FLAT!!!",5150,3,,-122.424109,37.742400
981,6739240835,Updated Villa Rosa Two Bedroom Condo!!!,1850,2,,-122.736790,38.456391
982,6741525164,Spacious 1x1 Great location and pet friendly ... Close to Stanford!,4194,1,810,-122.197612,37.424205
983,6725962332,Updated 2 bedroom 2.5 bathroom Southwest Santa Rosa Condo,2250,2,,-122.733900,38.408900
984,6741524370,Available in Dec! Remodeled One-Bed w/AC & Dishwasher! Great Location!,2695,1,,-122.093391,37.390137
985,6741524333,Rate Just Reduced! Spacious Floor Plan w/ Full Size W/D & Balcony!!,2390,1,735,-122.536483,38.011650
986,6732471478,"**Move in special, $1000 off first month's rent**",1800,1,,-122.671611,38.439562
